Name,lon,lat
A Better U Beauty Barber Academy,-106.583765,35.11063
A T Still University of Health Sciences,-92.589183,40.193648
Aaniiih Nakoda College,-108.757816,48.484196
ABC Adult School,-118.070114,33.878179
ABC Beauty Academy,-96.685333,32.931698
ABCO Technology,-118.369774,33.932121
Abcott Institute,-83.210617,42.446331
Abilene Christian University,-99.709797,32.468943
Abilene Christian University-Undergraduate Online,-96.826833,32.977065
Abraham Baldwin Agricultural College,-83.528281,31.481889
Abraham Lincoln University,-118.256726,34.146294
Academia Medical Institute,-83.092451,39.955242
Academia Serrant Inc,-66.61529,18.009658
Academy College,-93.299809,44.855722
Academy Di Capelli-School of Cosmetology,-72.806335,41.490402
Academy for Careers and Technology,-79.340157,34.186433
Academy for Five Element Acupuncture,-82.321994,29.650075
Academy for Jewish Religion,-73.90014,40.936234
Academy for Jewish Religion California,-118.415744,33.97085
Academy for Nursing and Health Occupations,-80.121497,26.70653
Academy for Salon Professionals,-118.558215,34.23396
Academy of Allied Health Careers,-85.214313,35.008533
Academy of Art University,-122.400578,37.787943
Academy of Beauty Professionals,-88.097926,44.52349
Academy of Beauty Professionals,-88.461527,44.266271
Academy of Beauty Professionals,-94.467053,38.812989
Academy of Beauty Professionals,-89.490781,43.05541
Academy of Career Training,-81.439569,28.306092
Academy of Careers and Technology,-81.165435,37.795299
Academy of Chinese Culture and Health Sciences,-122.269839,37.805972
Academy of Cosmetology,-80.70372,28.394053
Academy of Cosmetology Barbering and Esthetics,-97.547105,35.374805
Academy of Cosmetology Inc,-111.039848,45.680544
Academy of Esthetics and Cosmetology,-118.444228,34.285043
Academy of Hair Design-Grenada,-89.825313,33.775198
Academy of Hair Design-Jackson,-90.147044,32.376376
Academy of Hair Design-Jasper,-94.004879,30.908648
Academy of Hair Design-Las Vegas,-115.210473,36.15846
Academy of Hair Design-Lufkin,-94.718704,31.330724
Academy of Hair Design-Pearl,-90.115129,32.281983
Academy of Hair Design-Springfield,-93.261354,37.180584
Academy of Hair Technology,-82.327426,34.874681
Academy of Interactive Entertainment,-92.043315,30.220037
Academy of Interactive Entertainment,-122.351158,47.621224
Academy of Massage and Bodywork,-75.666786,39.628779
Academy of Natural Therapy Inc,-104.691075,40.426259
Academy of Professional Cosmetology,-94.157411,36.35541
Academy of Salon and Spa,-94.41616,35.38097
Academy of Salon Professionals,-93.251559,38.690729
Academy of Vocal Arts,-75.173735,39.94796
Acaydia School of Aesthetics,-111.65823,40.234627
Access Careers,-73.61531,40.709502
Access Careers-Islandia,-73.175617,40.800874
Ace Institute of Technology,-73.993385,40.753658
Acupuncture and Integrative Medicine College-Berkeley,-122.267636,37.862754
Acupuncture and Massage College,-80.364141,25.686382
Adams State University,-105.879642,37.473636
Adelphi University,-73.653321,40.721439
Adler Graduate School,-93.410236,44.893479
Adler University,-87.629156,41.882414
Adrian College,-84.061481,41.898591
Adrian H. Wallace Barber Academy,-87.213526,30.453536
Adrian's Beauty College of Turlock,-120.863784,37.491448
Adult and Community Education-Hudson,-82.980603,40.012851
Adult and Continuing Education-BCTS,-74.035045,40.900877
Advance Beauty College,-117.952637,33.759905
Advance Beauty Techs Academy,-117.517655,33.884074
Advance Science International College,-80.284567,25.924708
Advanced Barber College and Hair Design,-97.958247,26.131543
Advanced Career Institute,-119.377564,36.339646
Advanced College of Cosmetology,-88.736198,43.632848
Advanced Technology Institute,-76.182268,36.841381
Advanced Training Institute,-115.206821,36.09589
Advanced Welding Institute,-73.139437,44.45588
Advantage Career Institute,-74.050804,40.306828
Advantage Technical College,-66.493759,18.427879
Advantage Technical College,-66.081082,18.454692
Advantage Technical College-Aguadilla,-67.154491,18.433012
AdventHealth University,-81.367687,28.576142
Aesthetic Science Institute,-73.794947,42.76194
Aesthetics Institute,-90.335689,38.551852
Agape College of Business and Science,-119.787874,36.741252
Agnes Scott College,-84.295459,33.769268
Aiken Technical College,-81.841666,33.533833
Aims Community College,-104.763415,40.409559
Air Force Institute of Technology-Graduate School of Engineering & Management,-84.082618,39.782221
Alabama A & M University,-86.568502,34.783368
Alabama College of Osteopathic Medicine,-85.340805,31.206294
Alabama School of Nail Technology & Cosmetology,-87.893386,31.50997
Alabama State University,-86.295677,32.364317
Alamance Community College,-79.357657,36.066683
Alamo City Barber College,-98.639532,29.52717
Alaska Bible College,-149.111972,61.598553
Alaska Career College,-149.856954,61.181443
Alaska Christian College,-151.136005,60.490459
Alaska Pacific University,-149.804168,61.190968
Alaska Vocational Technical Center,-149.444487,60.110626
Albany Beauty Academy,-84.203041,31.603151
Albany BOCES-Adult Practical Nursing Program,-73.824182,42.744858
Albany College of Pharmacy and Health Sciences,-73.779063,42.650371
Albany Law School,-73.777495,42.651818
Albany Medical College,-73.777289,42.65382
Albany State University,-84.141825,31.56928
Albany Technical College,-84.174284,31.55434
Albert Einstein College of Medicine,-73.846327,40.852847
Albertus Magnus College,-72.923848,41.332519
Albion College,-84.745639,42.245049
Albizu University-Miami,-80.354942,25.795181
Albizu University-San Juan,-66.113908,18.466573
Albright College,-75.909742,40.361351
Alcorn State University,-91.142854,31.877216
Alder Graduate School of Education,-122.239258,37.486305
Alexander Academy,-71.769406,42.587705
Alexander Paul Institute of Hair Design,-77.371696,35.604962
Alexandria Technical & Community College,-95.372369,45.873107
Alfred University,-77.788106,42.254476
Alhambra Medical University,-118.148684,34.080181
Alice Lloyd College,-82.875068,37.335087
All In The Wrist Barber Academy,-75.605433,39.30507
All-State Career School,-75.303038,39.866057
All-State Career School-Pittsburgh,-79.93713,40.358492
All-State Career-Baltimore,-76.544942,39.264664
Allan Hancock College,-120.421144,34.943716
Allegany College of Maryland,-78.730398,39.652152
Allegheny College,-80.147168,41.64869
Allegheny Wesleyan College,-80.861232,40.86722
Allen College,-92.340148,42.530084
Allen County Community College,-95.396377,37.938038
Allen School-Brooklyn,-73.991546,40.693797
Allen School-Jamaica,-73.796295,40.704694
Allen School-Phoenix,-112.11743,33.629635
Allen University,-81.020045,34.010348
Allgood Beauty Institute,-96.812793,33.140645
Alliance Computing Solutions,-73.831481,40.76156
Alliant International University-San Diego,-117.094398,32.897056
Allied Health Careers Institute,-86.391495,35.827799
Allstate Hairstyling & Barber College,-81.704403,41.484002
Allure Beauty College,-82.838909,37.123363
Alma College,-84.672053,43.38004
Alpena Community College,-83.445069,45.081647
Altoona Beauty School Inc,-78.387852,40.501861
Alvernia University,-75.936754,40.310028
Alverno College,-87.965174,42.982842
Alvin Community College,-95.240671,29.396244
Amarillo College,-101.846988,35.187839
Amberton University,-96.65302,32.859931
Ambria College of Nursing,-88.2109,42.075628
America Evangelical University,-118.295931,33.883102
American Academy McAllister Institute of Funeral Service,-73.986466,40.757105
American Academy of Art College,-87.624788,41.87742
American Academy of Cosmetology,-81.798803,30.123757
American Academy of Dramatic Arts-Los Angeles,-118.343701,34.095378
American Academy of Dramatic Arts-New York,-73.984843,40.745545
American Academy of Health and Wellness,-93.157929,45.008212
American Advanced Technicians Institute,-80.323025,25.884901
American Baptist College,-86.789912,36.202623
American Barber and Beauty Academy,-75.939691,40.316547
American Beauty Academy,-111.733488,40.034634
American Beauty Academy-West Valley Campus,-111.938189,40.692128
American Beauty College,-117.936959,34.069367
American Beauty School,-73.860639,40.835331
American Beauty Schools,-80.327707,25.761572
American Career College-Anaheim,-117.975599,33.849912
American Career College-Los Angeles,-118.292481,34.079323
American Career College-Ontario,-117.583814,34.068204
American College of Acupuncture and Oriental Med,-95.524765,29.735747
American College of Barbering,-85.670147,38.084678
American College of Education,-86.160161,39.76975
American College of Financial Services,-75.394652,40.101644
American College of Healthcare and Technology,-117.493507,33.901581
American College of Healthcare and Technology,-118.224752,33.98271
American College of Healthcare and Technology-Santa Ana,-117.840955,33.759681
American College of Healthcare Sciences,-122.675858,45.486902
American College of the Building Arts,-79.946888,32.805094
American Educational College,-66.15099,18.397931
American Film Institute Conservatory,-118.310018,34.10767
American Hair Academy,-91.524949,40.962643
American Institute of Alternative Medicine,-74.386999,40.433916
American Institute of Alternative Medicine,-82.988733,40.102442
American Institute of Beauty,-82.749094,27.915072
American Institute of Healthcare & Technology,-73.150918,41.170738
American Institute of Massage Therapy,-117.847971,33.713238
American Institute of Medical Sciences & Education,-74.437251,40.56114
American Institute-Cherry Hill,-75.015417,39.939428
American Institute-Clifton,-74.130158,40.873516
American Institute-Somerset,-74.544122,40.55089
American Institute-Toms River,-74.220894,40.044556
American Institute-West Hartford,-72.725762,41.727016
American InterContinental University System,-111.804036,33.278816
American InterContinental University-Atlanta,-84.354907,33.938779
American InterContinental University-Houston,-95.548302,29.728216
American International College,-72.558338,42.112346
American Islamic College,-87.646898,41.954969
American Jewish University,-118.471706,34.128153
American Massage & Bodywork Institute,-77.244736,38.926154
American Medical Academy,-80.393361,25.66273
American Medical Sciences Center,-118.256991,34.147117
American Musical and Dramatic Academy,-73.987549,40.772275
American National University,-80.023602,37.299743
American National University-Pikeville,-82.528212,37.472423
American Public University System,-77.860121,39.287826
American River College,-121.349672,38.65085
American Samoa Community College,-170.742774,-14.322636
American Technical Institute,-66.184489,18.379307
American Trade School,-90.380141,38.72876
American University,-77.088875,38.936005
American University of Health Sciences,-118.171366,33.796849
Americare Technical School,-87.841982,42.017062
AMG School of Nursing,-73.985092,40.701286
Amherst College,-72.518493,42.372459
Amridge University,-86.17401,32.362609
Ana G. Mendez University,-81.30843,28.482195
Anabaptist Mennonite Biblical Seminary,-85.972165,41.656013
Anderson University,-85.664315,40.112768
Anderson University,-82.640358,34.5152
Andrew College,-84.795021,31.772321
Andrews University,-86.355815,41.963859
Angeles College,-118.29903,34.061223
Angeles Institute,-118.080741,33.875772
Angelina College,-94.731625,31.287444
Angelo State University,-100.465051,31.440914
Ann Webb Skin Institute,-97.751895,30.419687
Anna Maria College,-71.91896,42.330542
Anne Arundel Community College,-76.512223,39.049813
Annenberg School of Nursing,-118.553851,34.200825
Anoka Technical College,-93.416087,45.216709
Anoka-Ramsey Community College,-93.351697,45.172978
Another Level Barbering and Cosmetology School,-77.403817,37.228645
Antelope Valley Community College District,-118.186166,34.676207
Antigua College International,-80.327618,25.904817
Antilles School of Technical Careers,-66.059206,18.438416
Antioch College,-83.888077,39.799806
Antioch University,-83.908684,39.80321
Antioch University-Los Angeles,-118.384458,33.988533
Antioch University-New England,-72.293798,42.932344
Antioch University-Santa Barbara,-119.6958,34.419203
Antioch University-Seattle,-122.346318,47.615916
AOMA Graduate School of Integrative Medicine,-97.800643,30.228551
Aparicio-Levy Technical College,-82.332285,27.990625
Apex Academy Hair Skin Nails School of Cosmetology,-82.577702,40.771672
Apex College of Veterinary Technology,-104.813477,38.828277
Apex Technical School,-73.949306,40.748807
Apollo Career Center,-84.149151,40.692999
Appalachian Beauty School,-82.266793,37.624479
Appalachian Bible College,-81.198867,37.853335
Appalachian College of Pharmacy,-82.006195,37.211629
Appalachian School of Law,-82.095648,37.277669
Appalachian State University,-81.680583,36.215536
Applied Technology Services,-90.413236,38.542285
Aquinas College,-85.628785,42.96019
Aquinas Institute of Theology,-90.237795,38.634329
Arapahoe Community College,-105.018631,39.607505
Arcadia University,-75.163876,40.092606
Arclabs,-82.461311,34.77072
Arizona Academy of Beauty,-110.872305,32.237253
Arizona Christian University,-112.181776,33.622952
Arizona College of Nursing-Aurora,-104.836952,39.660088
Arizona College of Nursing-Cincinnati,-84.34767,39.275361
Arizona College of Nursing-Cleveland,-81.493304,41.46601
Arizona College of Nursing-Dallas,-96.75999,32.923106
Arizona College of Nursing-Falls Church,-77.218156,38.860531
Arizona College of Nursing-Fort Lauderdale,-80.138479,26.205783
Arizona College of Nursing-Las Vegas,-115.274149,36.067353
Arizona College of Nursing-Ontario,-117.578071,34.06676
Arizona College of Nursing-Phoenix,-112.117327,33.635804
Arizona College of Nursing-Salt Lake City,-111.903426,40.656372
Arizona College of Nursing-Sarasota,-82.452156,27.397535
Arizona College of Nursing-Southfield,-83.260202,42.48156
Arizona College of Nursing-Tampa,-82.523369,27.955614
Arizona College of Nursing-Tempe,-111.965808,33.403079
Arizona College of Nursing-Tucson,-110.880434,32.22113
Arizona College-Glendale,-112.154175,33.566263
Arizona College-Mesa,-111.873428,33.418374
Arizona Culinary Institute,-111.831237,33.581935
Arizona School of Acupuncture and Oriental Medicine,-110.929118,32.264559
Arizona School of Integrative Studies,-111.837249,33.41482
Arizona State University Campus Immersion,-111.934383,33.417721
Arizona State University Digital Immersion,-111.924487,33.463517
Arizona Western College,-114.495968,32.689306
Arkansas Baptist College,-92.290555,34.734751
Arkansas Beauty College,-93.135369,35.27902
Arkansas Beauty School-Little Rock,-92.343366,34.672171
Arkansas Colleges of Health Education,-94.319084,35.317421
Arkansas Northeastern College,-89.921005,35.898597
Arkansas State University,-90.679988,35.842388
Arkansas State University Mid-South,-90.22285,35.145736
Arkansas State University Three Rivers,-92.821416,34.378745
Arkansas State University-Beebe,-91.895351,35.074176
Arkansas State University-Mountain Home,-92.388581,36.320466
Arkansas State University-Newport,-91.190594,35.640492
Arkansas Tech University,-93.13562,35.293237
Arkansas Technical School,-92.266429,34.753843
Arkansas Welding Academy,-92.139911,34.883474
Arlington Baptist University,-97.156024,32.739489
Arlington Career Institute,-97.052772,32.77244
Arnolds Beauty School,-88.760125,35.919195
Arnot Ogden Medical Center,-76.828062,42.101171
Arrojo Cosmetology School,-74.005007,40.72765
Art Academy of Cincinnati,-84.513913,39.108805
Art Center College of Design,-118.185102,34.169031
Arthur's Beauty College,-92.102579,34.891572
Arthur's Beauty College,-92.445479,35.109764
Arthur's Beauty College,-90.68152,35.817823
Artisan Academy of Cosmetology,-85.219935,41.062673
Artistic Academy of Hair Design,-74.486405,40.855589
Artistic Nails and Beauty Academy-Lakeland,-81.94718,28.053634
Artistic Nails and Beauty Academy-Tampa,-82.403486,27.951358
Asbury Theological Seminary,-84.660127,37.861561
Asbury University,-84.662606,37.862029
Ascent College,-77.624657,38.805988
Asher College,-121.415767,38.587784
Asher Institute of Hampton,-76.425917,37.026859
Asheville-Buncombe Technical Community College,-82.554826,35.570439
Ashford University,-117.141961,32.8273
Ashland Community and Technical College,-82.650664,38.469201
Ashland County-West Holmes Career Center,-82.266808,40.801018
Ashland University,-82.321061,40.861755
Ashtabula County Technical and Career Campus,-80.733023,41.746864
ASI Career Institute,-75.045442,39.756604
Asian-American International Beauty College,-117.991643,33.759524
Aspen Beauty Academy of Laurel,-76.822219,39.099633
Aspen University,-111.981317,33.412164
ASPIRA City College,-75.135042,40.017493
Assabet Valley Regional Technical School,-71.567281,42.36775
Associated Barber College of San Diego,-117.159908,32.719318
Associated Beth Rivkah Schools,-73.950704,40.665544
Associated Technical College-Los Angeles,-118.272364,34.056102
Associated Technical College-San Diego,-117.135196,32.773178
Assumption College for Sisters,-74.490693,40.905857
Assumption University,-71.828991,42.294226
ATA Career Education,-82.595376,28.452699
ATA College,-95.856621,36.098554
ATA College,-85.563365,38.223667
ATA College,-116.981781,32.819023
ATA College-Cincinnati,-84.478867,39.29671
Atelier Esthetique Institute of Esthetics,-73.995669,40.746376
Atenas College,-66.488422,18.429776
Athena Career Academy,-83.665339,41.614633
Athenaeum of Ohio,-84.371927,39.082926
Athens State University,-86.964698,34.806793
Athens Technical College,-83.339598,33.990183
ATI College-Whittier,-118.003687,33.948364
Atlanta Institute of Music and Media,-84.105311,33.961164
Atlanta Metropolitan State College,-84.404659,33.70893
Atlanta School of Massage,-84.311332,33.922131
Atlanta Technical College,-84.404995,33.712009
Atlanta's John Marshall Law School,-84.385603,33.76128
Atlantic Cape Community College,-74.680019,39.462081
Atlantic Institute of Oriental Medicine,-80.142235,26.121964
Atlantic Technical College,-80.192271,26.24278
Atlantic University,-66.111714,18.357395
Atlantis University,-80.211287,25.786495
Auburn Career Center,-81.243798,41.649238
Auburn University,-85.488258,32.599378
Auburn University at Montgomery,-86.177544,32.36736
Augsburg University,-93.240436,44.966307
Augusta School of Massage,-82.135503,33.529159
Augusta Technical College,-82.048439,33.418992
Augusta University,-81.989071,33.47037
Augustana College,-90.55057,41.502365
Augustana University,-96.736975,43.525148
Auguste Escoffier School of Culinary Arts-Austin,-97.717865,30.326455
Auguste Escoffier School of Culinary Arts-Boulder,-105.250075,39.983475
Aultman College of Nursing and Health Sciences,-81.404053,40.796186
Aurora University,-88.349023,41.753631
Austin Career Institute,-97.691089,30.32685
Austin College,-96.596331,33.646345
Austin Community College District,-97.713778,30.326304
Austin Kade Academy,-112.001128,43.482859
Austin Medical Assistant Training,-73.841581,40.719358
Austin Peay State University,-87.354081,36.533319
Austin Presbyterian Theological Seminary,-97.736958,30.29201
Austin's Beauty College Inc,-87.362846,36.521386
Automeca Technical College-Aguadilla,-67.1418,18.448502
Automeca Technical College-Bayamon,-66.180088,18.406325
Automeca Technical College-Caguas,-66.037144,18.230554
Automeca Technical College-Ponce,-66.636854,18.011391
Automotive Training Center-Exton,-75.643079,40.058206
Automotive Training Center-Warminster,-75.075375,40.200656
Autry Technology Center,-97.89719,36.419122
Avalon Institute-Aurora,-104.848602,39.676308
Avalon Institute-Las Vegas,-115.206409,36.142355
Avalon Institute-Layton,-112.003639,41.089919
Avalon Institute-Mesa,-111.858305,33.376583
Avalon Institute-Phoenix,-112.068527,33.641828
Avalon School of Cosmetology,-95.602503,43.631842
Ave Maria School of Law,-81.731358,26.242138
Ave Maria University,-81.438945,26.335983
Aveda Arts & Sciences Institute Lafayette-Arlington,-77.111447,38.878767
Aveda Arts & Sciences Institute Minneapolis,-93.253555,44.987972
Aveda Arts & Sciences Institute Seattle,-122.319241,47.614494
Aveda Arts & Sciences Institute-Baton Rouge,-91.054583,30.425932
Aveda Arts & Sciences Institute-Covington,-90.104008,30.494049
Aveda Arts & Sciences Institute-Lafayette,-92.042092,30.206168
Aveda Arts & Sciences Institute-New York,-74.00497,40.725861
Aveda Arts & Sciences Institute-San Antonio,-98.452126,29.637354
Aveda Fredric's Institute-Cincinnati,-84.361091,39.35541
Aveda Fredric's Institute-Indianapolis,-86.117678,39.959878
Aveda Institute Montana,-108.575858,45.778914
Aveda Institute Portland-Vancouver Campus,-122.603849,45.643767
Aveda Institute Tucson-Avondale,-112.304885,33.454583
Aveda Institute-Boise,-116.309994,43.620545
Aveda Institute-Chapel Hill,-79.026769,35.927944
Aveda Institute-Chicago,-87.645838,41.933493
Aveda Institute-Columbus,-83.043021,40.062719
Aveda Institute-Denver,-105.000615,39.729146
Aveda Institute-Des Moines,-93.802586,41.562675
Aveda Institute-Fort Myers,-81.870312,26.596006
Aveda Institute-Madison,-89.398711,43.072676
Aveda Institute-Maryland,-76.349927,39.531933
Aveda Institute-New Mexico,-106.667464,35.091873
Aveda Institute-Phoenix,-111.968721,33.338893
Aveda Institute-Portland,-122.68474,45.525507
Aveda Institute-Provo,-111.658335,40.236621
Aveda Institute-South Florida,-80.251766,26.070447
Aveda Institute-Tallahassee,-84.317892,30.442037
Aveda Institute-Tucson,-110.968361,32.220141
Aveda Institute-Twin Falls,-114.461545,42.593567
Avenue Academy A Cosmetology Institute,-106.531872,35.096452
Avenue Five Institute,-97.728961,30.369503
Avenue Five Institute-South Austin Campus,-97.756266,30.221953
Avera McKennan Hospital School of Radiologic Technology,-96.715584,43.533972
Avera Sacred Heart Hospital,-97.407865,42.872359
Averett University,-79.413203,36.577287
Avery James College,-93.219712,30.202601
Avi Career Training,-77.296823,38.974295
Aviation Institute of Maintenance-Atlanta,-84.147864,33.948914
Aviation Institute of Maintenance-Charlotte,-80.736311,35.161941
Aviation Institute of Maintenance-Chicago,-87.664313,41.825743
Aviation Institute of Maintenance-Dallas,-96.941822,32.836068
Aviation Institute of Maintenance-Fremont,-121.92135,37.468594
Aviation Institute of Maintenance-Houston,-95.28262,29.65852
Aviation Institute of Maintenance-Indianapolis,-86.288273,39.753062
Aviation Institute of Maintenance-Kansas City,-94.498289,39.049869
Aviation Institute of Maintenance-Las Vegas,-115.118122,36.083117
Aviation Institute of Maintenance-Manassas,-77.514594,38.794493
Aviation Institute of Maintenance-Norfolk,-76.216995,36.914293
Aviation Institute of Maintenance-Orlando,-81.334196,28.680653
Aviation Institute of Maintenance-Philadelphia,-75.007237,40.070184
Aviation Institute of Maintenance-Phoenix,-112.01036,33.410174
Aviation Institute of Maintenance-Teterboro,-74.065599,40.864741
Aviator College of Aeronautical Science and Technology,-80.367303,27.48718
Avila University,-94.591758,38.91339
Award Beauty School,-77.720283,39.640443
Ayers Career College,-93.798229,32.418291
Azusa Pacific University,-117.888375,34.130047
B M Spurr School of Practical Nursing,-80.752394,39.946126
Babson College,-71.264057,42.297017
Bacone College,-95.334046,35.777082
Bais Binyomin Academy,-74.078802,41.123013
Bais HaMedrash and Mesivta of Baltimore,-76.674414,39.379528
Bais Medrash Elyon,-74.069798,41.114079
Bais Medrash Mayan Hatorah,-74.204332,40.107414
Bais Medrash of Dexter Park,-74.045927,41.081404
Bais Medrash Toras Chesed,-74.21127,40.099704
Baker College,-84.172404,42.984804
Baker University,-95.187346,38.778712
Bakersfield College,-118.973753,35.40911
Bakke Graduate University,-96.753976,32.894605
Baldwin Beauty School-North Austin,-97.729371,30.365855
Baldwin Beauty School-South Austin,-97.783062,30.241662
Baldwin Park Adult & Community Education,-117.959486,34.09673
Baldwin Wallace University,-81.851145,41.373017
Ball State University,-85.409043,40.203431
Baltimore Beauty & Barber School II,-76.624887,39.444853
Baltimore City Community College,-76.662878,39.319978
Baltimore Studio of Hair Design,-76.620008,39.293371
Bancroft School of Massage Therapy,-71.778113,42.268973
Bank Street College of Education,-73.966643,40.805604
Baptist Health College Little Rock,-92.40692,34.713115
Baptist Health Sciences University,-90.027501,35.138415
Baptist Health System School of Health Professions,-98.567486,29.517063
Baptist Missionary Association Theological Seminary,-95.255524,31.978961
Baptist University of Florida,-85.503931,30.962708
Baptist University of the Americas,-98.541223,29.342919
Barber & Beauty Institute of New York,-73.615341,40.69983
Barber and Beauty Academy of Pennsylvania,-76.825509,40.27505
Barber Education Academy,-99.48055,27.555745
Barber Institute of Texas,-94.732635,32.46297
Barber School of Pittsburgh,-80.029439,40.418425
Barber Tech Academy,-80.856946,33.492394
Barber Tech Academy-Columbia,-81.090103,34.034477
Barbers Trade School,-94.097718,30.081479
Barclay College,-99.105351,37.62012
Bard College,-73.909927,42.020386
Bard College at Simon's Rock,-73.379201,42.208803
Barnard College,-73.963346,40.810098
Barnes-Jewish College Goldfarb School of Nursing,-90.258772,38.637165
Barry University,-80.198925,25.878908
Barstow Community College,-117.023412,34.870285
Barton College,-77.913867,35.734376
Barton County Community College,-98.731648,38.403529
Bastyr University,-122.251708,47.729935
Bates College,-70.203333,44.105299
Bates Technical College,-122.44683,47.251743
Baton Rouge Community College,-91.137935,30.448276
Baton Rouge General Medical Center School of Nursing & School of Radiologic Technology,-91.152502,30.447919
Bay Area Medical Academy,-122.406318,37.790775
Bay de Noc Community College,-87.085228,45.772586
Bay Mills Community College,-84.606312,46.45482
Bay Path University,-72.583382,42.055088
Bayamon Community College,-66.155908,18.398313
Baylor College of Medicine,-95.395743,29.7106
Baylor University,-97.121041,31.546872
Bayshire Academy of Beauty Craft Inc,-83.88895,43.599758
Be'er Yaakov Talmudic Seminary,-74.029573,41.138206
Beacon College,-81.87415,28.811281
Beal University,-68.785428,44.786465
Beau Monde Academy of Barbering and Cosmetology,-122.65456,45.531839
Beaufort County Community College,-76.96535,35.533587
Beaumont Adult School,-116.964728,33.951365
Beauty Academy of South Florida,-80.323571,25.86289
Beaver Beauty Academy,-84.284219,33.732385
Beckfield College-Florence,-84.641475,39.017166
Beis Medrash Heichal Dovid,-73.751633,40.596845
Bel-Rea Institute of Animal Technology,-104.876207,39.686194
Belanger School of Nursing,-73.915884,42.802979
Belbo Beauty Institute,-93.706628,32.485759
Belhaven University,-90.169228,32.318415
Bell Mar Beauty College,-87.767244,41.850656
Bella Capelli Academy,-79.781557,40.432534
Bella Cosmetology and Barber College,-96.107802,33.119725
Bellarmine University,-85.704997,38.219279
Bellasa Professional Institute,-80.267007,25.810667
Belle Academy of Cosmetology LLC,-73.055819,41.59749
Bellevue College,-122.150118,47.584014
Bellevue University,-95.91764,41.150225
Bellin College,-87.921722,44.468277
Bellingham Technical College,-122.51216,48.766189
Bellus Academy,-96.60827,39.191749
Bellus Academy-Chula Vista,-117.083738,32.614773
Bellus Academy-El Cajon,-116.94627,32.794072
Bellus Academy-Poway,-117.042531,32.957184
Belmont Abbey College,-81.041315,35.260651
Belmont College,-80.964901,40.07695
Belmont University,-86.794807,36.135589
Beloit College,-89.029285,42.504022
Bemidji State University,-94.874119,47.482341
Ben Franklin Career Center,-81.75353,38.367234
Bene's Career Academy,-82.728584,28.259612
Benedict College,-81.020403,34.012941
Benedictine College,-95.113858,39.573079
Benedictine University,-88.097307,41.777569
Benjamin Franklin Cummings Institute of Technology,-71.070231,42.346023
Bennett Career Institute,-76.995965,38.93264
Bennett College,-79.77998,36.067531
Bennington College,-73.237799,42.919547
Bentley University,-71.222839,42.385995
Berea College,-84.292893,37.57202
Bergen Community College,-74.088804,40.951782
Bergin University of Canine Studies,-122.68099,38.302849
Berk Trade and Business School,-73.930982,40.745021
Berkeley City College,-122.269877,37.869769
Berkeley College-New York,-73.979458,40.753986
Berkeley College-Woodland Park,-74.189483,40.898587
Berkeley School of Theology,-122.256149,37.865252
Berklee College of Music,-71.089405,42.346646
Berkowits School of Electrolysis,-73.845213,40.709736
Berks Career & Technology Center,-76.000808,40.388341
Berkshire Community College,-73.314704,42.45975
Berry College,-85.189202,34.290414
Best Care College,-74.221116,40.765332
Bet Medrash Gadol Ateret Torah,-73.969945,40.607809
Beth Hamedrash Shaarei Yosher Institute,-73.981202,40.635444
Beth Medrash Govoha,-74.221328,40.095672
Beth Medrash Meor Yitzchok,-74.060843,41.100906
Beth Medrash of Asbury Park,-74.210816,40.043705
Bethany College,-97.67367,38.580598
Bethany College,-80.560056,40.205819
Bethany Global University,-93.371754,44.795501
Bethany Lutheran College,-93.990805,44.166649
Bethany Theological Seminary,-84.910689,39.826244
Bethel College-North Newton,-97.343256,38.075169
Bethel University,-86.194686,41.678399
Bethel University,-93.161663,45.057655
Bethel University,-88.516762,36.137848
Bethesda University,-117.941323,33.842295
Bethlehem College & Seminary,-93.255399,44.968872
Bethune-Cookman University,-81.032946,29.207195
Beulah Heights University,-84.35768,33.736993
Beverly Hills Design Institute,-118.375621,34.06463
Bevill State Community College,-87.265258,33.837056
Bexley Hall Seabury Western Theological Seminary Federation Inc.,-87.591178,41.785701
Beyond 21st Century Beauty Academy,-118.041477,33.916443
Beyond Measure Barbering Institute,-79.276539,36.098405
Big Bend Community College,-119.325678,47.183651
Big Bend Technical College,-83.565783,30.077954
Big Sandy Community and Technical College,-82.778847,37.688248
Binghamton University,-75.966889,42.087868
Biola University,-118.014374,33.906203
Birmingham-Southern College,-86.850552,33.513774
Bishop State Community College,-88.056982,30.693972
Bismarck State College,-100.816534,46.821459
BJ's Beauty & Barber College,-122.483385,47.208428
BK Cosmo College of Cosmetology,-99.15037,30.055075
Black Hawk College,-90.447799,41.477283
Black Hills State University,-103.870966,44.494889
Black River Technical College,-90.951033,36.239793
Blackburn College,-89.870241,39.287896
Blackfeet Community College,-113.009387,48.551927
Blackhawk Technical College,-89.016254,42.593159
Blackstone Valley Vocational Regional School District,-71.616243,42.16382
Bladen Community College,-78.731119,34.644691
Blake Austin College,-121.945606,38.378548
Blalock's Professional Beauty College,-93.783796,32.426523
Blessing Rieman College of Nursing and Health Sciences,-91.357497,39.949641
Blinn College District,-96.40852,30.160457
Bloomfield College,-74.194309,40.795105
Blue Cliff Career College,-88.114952,30.670281
Blue Cliff College-Alexandria,-92.475371,31.276699
Blue Cliff College-Gulfport,-89.039348,30.442482
Blue Cliff College-Lafayette,-92.011131,30.18811
Blue Cliff College-Metairie,-90.172771,30.002779
Blue Hills Regional Technical School,-71.104081,42.18221
Blue Mountain Christian University,-89.02924,34.67209
Blue Mountain Community College,-118.816944,45.677313
Blue Ridge Community and Technical College,-78.001918,39.43529
Blue Ridge Community College,-82.425544,35.30804
Blue Ridge Community College,-78.937471,38.279075
Bluefield State University,-81.239037,37.265732
Bluefield University,-81.246233,37.244557
Bluegrass Community and Technical College,-84.503665,38.024808
Bluffton University,-83.899439,40.895606
Bnos Zion Of Bobov Seminary,-73.991157,40.633353
Bob Jones University,-82.365838,34.874016
Boca Beauty Academy,-80.167216,26.366888
Boca Beauty Academy-Parkland,-80.203872,26.321755
Body Wisdom Massage Therapy School,-93.734181,41.629798
Boise Barber College,-116.278054,43.588823
Boise Bible College,-116.291321,43.658651
Boise State University,-116.203301,43.604284
Bolivar Technical College,-93.421572,37.623766
Bon Secours Memorial College of Nursing,-77.433569,37.646698
Bon Secours St Mary's Hospital School of Medical Imaging,-77.433569,37.646698
Bonnie Joseph Academy of Cosmetology & Barbering,-111.412014,40.508476
Boone Career and Technical Center,-81.809645,38.103362
Boricua College,-73.9458,40.833434
Borner's Barber College,-118.309291,33.95588
Bos-Man's Barber College,-93.782849,32.442955
Bossier Parish Community College,-93.646881,32.539551
Boston Architectural College,-71.085786,42.348467
Boston Baptist College,-71.1103,42.254037
Boston College,-71.169242,42.336213
Boston Graduate School of Psychoanalysis Inc,-71.133151,42.33912
Boston University,-71.107942,42.351118
Bowdoin College,-69.963942,43.907134
Bowie State University,-76.759721,39.018185
Bowling Green State University-Firelands,-82.594266,41.397566
Bowling Green State University-Main Campus,-83.640896,41.375513
Bradley University,-89.616786,40.696896
Brand College,-118.265551,34.15799
Brandeis University,-71.260155,42.365727
Branford Academy of Hair & Cosmetology-Bridgeport,-73.163258,41.186859
Branford Academy of Hair and Cosmetology,-72.8537,41.277187
Brazosport College,-95.40934,29.048604
Brenau University,-83.821513,34.303117
Brescia University,-87.111639,37.769041
Brevard College,-82.729494,35.236763
Brewton-Parker College,-82.586136,32.185718
Briar Cliff University,-96.428444,42.526443
Bridgerland Technical College,-111.850619,41.756188
Bridges Beauty College,-117.303933,34.528602
Bridges Christian College,-90.103551,29.935984
BridgeValley Community & Technical College,-81.6983,38.353846
Bridgewater College,-78.969007,38.378484
Bridgewater State University,-70.974553,41.98749
Brigham Young University,-111.649281,40.250851
Brigham Young University-Hawaii,-157.926586,21.642074
Brigham Young University-Idaho,-111.782431,43.818408
Brighton Center's Center for Employment Training,-84.490096,39.092904
Brighton Institute of Cosmetology,-83.743486,42.521018
Brightpoint Community College,-77.407919,37.346254
Brillare Beauty Institute,-84.881446,35.191417
Bristol Community College,-71.119133,41.721994
Bristol Technical Education Center,-72.990101,41.69004
Brite Divinity School,-97.359137,32.710145
Brittany Beauty Academy,-73.897121,40.860976
Brittany Beauty Academy,-74.028581,40.62318
Brittany Beauty Academy,-73.516164,40.72479
Broken Arrow Beauty College,-95.852816,36.060431
Brookdale Community College,-74.132746,40.324906
Brookline College-Albuquerque,-106.68749,35.08781
Brookline College-Phoenix,-112.112473,33.566102
Brookline College-Tempe,-111.961365,33.4163
Brookline College-Tucson,-110.875869,32.217799
Brooklyn Law School,-73.989623,40.691836
Broome Delaware Tioga BOCES-Practical Nursing Program,-75.96581,42.115372
Broward College,-80.14183,26.119422
Brown & Clermont Adult Career Campuses,-84.094071,38.969393
Brown Aveda Institute-Mentor,-81.324318,41.672002
Brown Aveda Institute-Strongsville,-81.826226,41.312522
Brown Beauty Barber School,-86.953134,33.399873
Brown University,-71.40385,41.82617
Brownson Technical School,-117.905774,33.819032
Brunswick Community College,-78.22979,34.038973
Bryan College of Health Sciences,-96.651532,40.796768
Bryan College-Dayton,-84.999552,35.497209
Bryan University,-93.248107,37.135397
Bryan University,-111.944197,33.437779
Bryant & Stratton College-Albany,-73.809977,42.698125
Bryant & Stratton College-Buffalo,-78.869108,42.887197
Bryant & Stratton College-Greece,-77.69559,43.240547
Bryant & Stratton College-Online,-78.770363,42.790174
Bryant & Stratton College-Parma,-81.781757,41.404607
Bryant & Stratton College-Syracuse North,-76.230807,43.149337
Bryant & Stratton College-Virginia Beach,-76.13819,36.827826
Bryant & Stratton College-Wauwatosa,-88.050983,43.043215
Bryant University,-71.539547,41.920092
Bryn Athyn College of the New Church,-75.060808,40.134393
Bryn Mawr College,-75.313223,40.02736
Buckeye Hills Career Center,-82.388043,38.892181
Buckeye Joint Vocational School,-81.401957,40.470531
Bucknell University,-76.882616,40.954317
Buckner Barber School,-96.684709,32.737175
Bucks County Community College,-74.965841,40.239102
Bucks County School of Beauty Culture Inc,-75.007054,40.166449
Buena Vista University,-95.208529,42.642255
Bull City Durham Beauty and Barber College,-78.889993,35.989115
Bunker Hill Community College,-71.069263,42.374806
Burlington County Institute of Technology-Adult Education,-74.822846,40.018851
Burrell College of Osteopathic Medicine,-106.737787,32.278068
Bushnell University,-123.079754,44.047483
Butler Beauty Academy,-79.895107,40.859152
Butler Beauty Academy-Kittanning Beauty Academy,-79.52003,40.813778
Butler Beauty Academy-New Castle Beauty Academy,-80.341891,40.999207
Butler Community College,-96.882987,37.806699
Butler County Community College,-79.911433,40.829364
Butler Technology and Career Development Schools,-84.431434,39.44114
Butler University,-86.172167,39.8374
Butte Academy of Beauty Culture,-112.540982,46.01274
Butte College,-121.644831,39.649782
Butte County Regional Occupational Program,-121.804024,39.715283
Byzantine Catholic Seminary of Saints Cyril and Methodius,-80.015825,40.484409
CAAN Academy of Nursing,-87.731726,41.505272
Cabarrus College of Health Sciences,-80.600824,35.440038
Cabell County Career Technology Center,-82.372418,38.403244
Cabrillo College,-121.924797,36.989448
Cabrini University,-75.375263,40.056355
Caddo Kiowa Technology Center,-98.443443,35.108561
Cadillac Institute of Cosmetology,-85.400655,44.251375
Cairn University-Langhorne,-74.909509,40.165809
Cal Northern School of Law,-121.839216,39.774522
CALC Institute of Technology,-90.175979,38.927494
CalCopa Massage School,-117.98744,33.692932
Caldwell Community College and Technical Institute,-81.484148,35.854604
Caldwell University,-74.272571,40.832753
California Aeronautical University,-119.049264,35.434905
California Baptist University,-117.425619,33.929321
California Barber and Beauty College,-117.0814,32.757282
California Beauty School,-120.997481,37.645371
California Career College,-118.601794,34.197566
California Career Institute,-117.887923,33.816691
California College of ASU,-118.25968,34.039355
California College of Barbering and Cosmetology,-121.293756,38.000656
California College of Music,-118.128935,34.145103
California College of the Arts,-122.399451,37.767485
California Hair Design Academy,-117.024261,32.765221
California Healing Arts College,-118.265919,33.844718
California Health Sciences University,-119.701977,36.832466
California Indian Nations College,-116.353365,33.773732
California Institute of Advanced Management,-118.15055,34.082467
California Institute of Arts & Technology,-117.134199,32.770776
California Institute of Arts & Technology-National City,-117.106076,32.661577
California Institute of Integral Studies,-122.416102,37.774924
California Institute of Medical Science,-119.694271,36.810031
California Institute of Technology,-118.125878,34.137349
California Institute of the Arts,-118.566837,34.39327
California Intercontinental University,-96.723619,43.547576
California Jazz Conservatory,-122.268878,37.871235
California Lutheran University,-118.878924,34.224566
California Miramar University,-117.11851,32.77942
California Northstate University,-121.481542,38.405942
California Nurses Educational Institute,-116.490142,33.816672
California Polytechnic State University-San Luis Obispo,-120.657311,35.299513
California State Polytechnic University-Humboldt,-124.078293,40.877481
California State Polytechnic University-Pomona,-117.821476,34.057912
California State University Maritime Academy,-122.231551,38.069061
California State University-Bakersfield,-119.104711,35.350005
California State University-Channel Islands,-119.04356,34.162949
California State University-Chico,-121.844859,39.729712
California State University-Dominguez Hills,-118.255917,33.864766
California State University-East Bay,-122.054135,37.657694
California State University-Fresno,-119.744569,36.811154
California State University-Fullerton,-117.885446,33.881506
California State University-Long Beach,-118.11204,33.782818
California State University-Los Angeles,-118.168965,34.066927
California State University-Monterey Bay,-121.796178,36.652397
California State University-Northridge,-118.529319,34.240126
California State University-Sacramento,-121.423549,38.559415
California State University-San Bernardino,-117.323801,34.182622
California State University-San Marcos,-117.159013,33.130569
California State University-Stanislaus,-120.852511,37.52577
California University of Science and Medicine,-117.350487,34.077252
California Western School of Law,-117.162416,32.722192
Calumet College of Saint Joseph,-87.494123,41.671008
Calvary University,-94.547927,38.839578
Calvin Theological Seminary,-85.586439,42.927951
Calvin University,-85.587548,42.929916
Cambridge College,-71.072646,42.381091
Cambridge College of Healthcare & Technology,-80.123788,26.438379
Cambridge College of Healthcare & Technology,-81.375722,28.66306
Cambridge Technical Institute,-66.019673,18.248604
Camden County College,-75.038381,39.784874
Cameo Beauty Academy,-87.740894,41.716051
Cameo College of Essential Beauty,-111.887832,40.645694
Cameron University,-98.434163,34.606487
Campbell University,-78.738238,35.409149
Campbellsville University,-85.348943,37.343342
Canada College,-122.265398,37.44877
Canadian Valley Technology Center,-97.881967,35.509208
Canisius University,-78.852577,42.925206
Cankdeska Cikana Community College,-98.990801,47.978122
Cannella School of Hair Design-Chicago,-87.701198,41.815763
Cannella School of Hair Design-Chicago,-87.551622,41.731381
Cannella School of Hair Design-Villa Park,-87.994628,41.90417
Canton City Schools Adult Career and Technical Education,-81.378614,40.799696
Cape Cod Community College,-70.337334,41.691911
Cape Coral Technical College,-81.976156,26.658582
Cape Fear Community College,-77.948306,34.240624
Cape Girardeau Career and Technology Center,-89.565366,37.274001
Capella University,-93.268796,44.976286
Capilo School of Hair Design,-69.777717,44.317693
Capital Area Career Center,-89.626262,39.718311
Capital Health School of Nursing,-74.74186,40.216523
Capital Health School of Radiologic Technology,-74.741869,40.216592
Capital University,-82.937867,39.954875
Capitol Beauty School,-96.082248,41.209501
Capitol Technology University,-76.850231,39.046673
Capri Beauty College,-87.771567,41.603863
Capri Beauty College,-87.927816,41.509958
Capri College-Cedar Rapids,-91.710201,41.960734
Capri College-Davenport,-90.538828,41.575211
Capri College-Dubuque,-90.665565,42.497357
Capri Cosmetology Learning Centers,-74.022421,41.09909
Capstone College,-118.149478,34.165741
Cardiac and Vascular Institute of Ultrasound,-88.112324,30.650045
Career Academy of Beauty,-118.031697,33.781018
Career Academy of Hair Design,-94.12947,36.167605
Career and Technology Education Centers of Licking County,-82.429175,40.099973
Career Care Institute,-118.15638,34.678236
Career Center of Southern Illinois,-89.948787,38.289727
Career Development Institute Inc,-118.386067,34.045817
Career Networks Institute,-117.8478,33.721058
Career School of NY,-74.078168,40.641352
Career Technical Institute,-77.032461,38.904
Career Technology Center of Lackawanna County,-75.652477,41.452849
Careers Unlimited,-111.731006,40.275775
Caribbean Aviation Training Institute Inc,-65.997043,18.439873
Caribbean Forensic and Technical College,-66.074179,18.450952
Caribbean University-Bayamon,-66.168315,18.383136
Caribbean University-Carolina,-65.960036,18.380193
Caribbean University-Ponce,-66.59425,18.006633
Caribbean University-Vega Baja,-66.40315,18.444882
Caris College,-85.710165,38.326417
Carl Albert State College,-94.633986,35.039173
Carl Sandburg College,-90.408203,40.98128
Carleton College,-93.154666,44.462318
Carlow University,-79.963448,40.439293
Carlson College of Massage Therapy,-91.356125,42.103743
Carnegie Institute,-83.118801,42.53889
Carnegie Mellon University,-79.941993,40.44357
Carolina Christian College,-80.256252,36.146168
Carolina College of Biblical Studies,-78.939514,35.05141
Carolina College of Hair Design Inc,-82.601533,35.584088
Carolina University,-80.250153,36.087962
Carolinas College of Health Sciences,-80.927508,35.181863
Carrington College-Albuquerque,-106.633361,35.110048
Carrington College-Boise,-116.260675,43.615295
Carrington College-Las Vegas,-115.118231,36.08486
Carrington College-Mesa,-111.853218,33.39248
Carrington College-Phoenix North,-112.104601,33.565758
Carrington College-Pleasant Hill Campus,-122.072153,37.962649
Carrington College-Portland,-122.653583,45.532356
Carrington College-Reno,-119.786947,39.463165
Carrington College-Sacramento,-121.371383,38.556104
Carrington College-San Jose,-121.777062,37.248411
Carrington College-San Leandro Campus,-122.12567,37.699627
Carrington College-Spokane,-117.268126,47.675918
Carrington College-Stockton,-121.323199,37.998992
Carrington College-Tucson,-110.983056,32.224391
Carroll College,-112.040285,46.600771
Carroll Community College,-76.991113,39.531805
Carroll University,-88.228114,43.004527
Carson-Newman University,-83.491709,36.122934
Carteret Community College,-76.755538,34.723681
Carthage College,-87.820924,42.622969
Carthage R9 School District-Carthage Technical Center,-94.30087,37.173927
Carver Career Center,-81.562988,38.289708
Casa Loma College-Los Angeles,-118.466548,34.155096
Casal Aveda Institute,-80.751433,41.213305
Casal Institute of Nevada,-115.117387,36.101143
Cascadia College,-122.191572,47.760915
Case Western Reserve University,-81.609596,41.507419
Casper College,-106.326712,42.832788
Cass Career Center,-94.333774,38.660248
Catawba College,-80.482751,35.691443
Catawba Valley Community College,-81.28792,35.699732
Catherine Hinds Institute of Esthetics,-71.13715,42.493212
Catholic Distance University,-77.859242,39.287311
Catholic Theological Union at Chicago,-87.585989,41.797895
Cattaraugus Allegany BOCES-Practical Nursing Program,-78.405395,42.093196
Cayce/Reilly School of Massage,-75.990945,36.892698
Cayuga County Community College,-76.542867,42.943726
Cayuga Onondaga BOCES-Practical Nursing Program,-76.587981,42.9419
CBD College,-118.306221,34.06231
CBT Technology Institute-Cutler Bay,-80.356565,25.590468
CBT Technology Institute-Hialeah,-80.302213,25.867003
CBT Technology Institute-Main Campus,-80.329161,25.769052
CCI Training Center-Arlington,-97.101289,32.755006
CDE Career Institute,-75.303611,41.033423
Cecil College,-75.955949,39.642225
Cedar Crest College,-75.519221,40.586318
Cedarville University,-83.814692,39.749237
Celebrity Barber School,-92.083641,32.521718
Celebrity School of Beauty,-80.323333,25.761658
Celebrity Stylist Beauty School,-92.085347,32.52121
CEM College-Humacao,-65.821107,18.148771
CEM College-San Juan,-66.035797,18.393955
Centenary College of Louisiana,-93.730834,32.483335
Centenary University,-74.833644,40.84764
Center for Advanced Legal Studies,-95.558831,29.75302
Center for Advanced Studies On Puerto Rico and the Caribbean,-66.11841,18.466567
Center for Allied Health Education,-73.958977,40.608783
Center for Instruction Technology & Innovation,-76.259308,43.457841
Center for Massage,-82.55114,35.593919
Center for Neurosomatic Studies,-82.714351,27.898475
Center for the Healing Arts,-75.0,39.851623
Center for Ultrasound Research & Education,-73.746486,41.028851
Centra College,-79.174101,37.4051
Central Alabama Community College,-85.945266,32.92478
Central Arizona College,-111.652501,32.957092
Central Baptist College,-92.445021,35.083838
Central California School of Continuing Education,-120.64847,35.262091
Central Carolina Community College,-79.143553,35.471864
Central Carolina Technical College,-80.37101,33.933342
Central Christian College of Kansas,-97.668597,38.357978
Central Christian College of the Bible,-92.427259,39.395963
Central Coast College,-121.652394,36.706345
Central College,-92.922199,41.401539
Central College of Cosmetology,-92.142861,37.806945
Central Community College,-98.372549,40.889582
Central Connecticut State University,-72.765991,41.692502
Central Georgia Technical College,-83.66765,32.545341
Central Lakes College-Brainerd,-94.216495,46.345969
Central Louisiana Technical Community College,-92.446693,31.310461
Central Maine Community College,-70.235498,44.134346
Central Methodist University-College of Graduate and Extended Studies,-92.685253,39.150497
Central Methodist University-College of Liberal Arts and Sciences,-92.685253,39.150497
Central Michigan University,-84.77525,43.591203
Central New Mexico Community College,-106.628861,35.071878
Central Ohio Technical College,-82.447441,40.069314
Central Oklahoma College,-97.560235,35.621488
Central Oregon Community College,-121.348585,44.071401
Central Penn College,-76.934461,40.3049
Central Pennsylvania Diesel Institute,-76.990343,40.551071
Central Pennsylvania Institute of Science and Technology,-77.740923,40.882168
Central Piedmont Community College,-80.829796,35.217774
Central School of Practical Nursing,-81.656988,41.397093
Central School of Practical Nursing,-76.210274,36.869309
Central State University,-83.880186,39.715787
Central Susquehanna Intermediate Unit LPN Career,-76.850178,40.970401
Central Technology Center,-96.585322,35.994261
Central Texas Beauty College-Round Rock,-97.685077,30.520723
Central Texas Beauty College-Temple,-97.379234,31.084871
Central Texas College,-97.810827,31.120516
Central Valley Barber College,-120.932216,37.738336
Central Virginia Community College,-79.184238,37.358809
Central Washington University,-120.538368,47.002687
Central Wyoming College,-108.426738,43.030556
Central Yeshiva Beth Joseph,-73.959386,40.615411
Central Yeshiva Tomchei Tmimim Lubavitz,-73.938778,40.669694
Centralia Beauty College,-122.955164,46.714769
Centralia College,-122.960591,46.715017
Centre College,-84.779392,37.645709
Centura College-Chesapeake,-76.227712,36.765954
Centura College-Newport News,-76.517328,37.140484
Centura College-Norfolk,-76.232569,36.908434
Centura College-Richmond Main,-77.543157,37.499343
Centura College-Virginia Beach,-76.064499,36.837648
Century College,-66.06559,18.40919
Century College,-92.982105,45.041823
Cerritos College,-118.097337,33.886874
Cerro Coso Community College,-117.66767,35.567525
CES College,-118.303297,34.180401
CET-Alexandria,-77.142637,38.802702
CET-Coachella,-116.185875,33.692248
CET-Colton,-117.353488,34.077381
CET-El Centro,-115.549079,32.790908
CET-El Paso,-106.323115,31.696199
CET-Oxnard,-119.18145,34.194208
CET-Salinas,-121.65236,36.707333
CET-San Diego,-117.105328,32.711302
CET-San Jose,-121.88698,37.322723
CET-Santa Maria,-120.441978,34.943576
CET-Soledad,-121.316599,36.41456
CET-Watsonville,-121.767991,36.931833
Chabot College,-122.105636,37.642458
Chadron State College,-103.001615,42.8199
Chaffey College,-117.573932,34.147663
Chamberlain University-Arizona,-112.104601,33.565758
Chamberlain University-California,-121.278258,38.596193
Chamberlain University-Florida,-81.586421,30.243517
Chamberlain University-Georgia,-84.351949,33.911943
Chamberlain University-Illinois,-88.038558,41.949727
Chamberlain University-Indiana,-86.111061,39.91916
Chamberlain University-Louisiana,-90.152655,29.962307
Chamberlain University-Michigan,-83.150571,42.557063
Chamberlain University-Missouri,-90.436283,38.701907
Chamberlain University-Nevada,-115.313525,36.185176
Chamberlain University-New Jersey,-74.438877,40.465934
Chamberlain University-North Carolina,-80.931971,35.13766
Chamberlain University-Ohio,-82.912163,40.054055
Chamberlain University-Texas,-95.560414,29.838386
Chamberlain University-Virginia,-77.220505,38.910459
Chaminade University of Honolulu,-157.807851,21.28995
Champ's Barber School,-76.307594,40.037616
Champ's Barber School-Lebanon,-76.424687,40.338376
Champion Beauty College,-95.489161,29.99352
Champion Christian College,-93.065945,34.499589
Champlain College,-73.202746,44.473287
Chancellor Institute,-80.185274,26.201792
Chandler-Gilbert Community College,-111.795922,33.293897
Chapman University,-117.852518,33.79302
Charles A Jones Career and Education Center,-121.440796,38.516233
Charles and Sues School of Hair Design,-96.340102,30.6528
Charles H McCann Technical School,-73.10149,42.664578
Charles of Italy Beauty College,-114.332686,34.477485
Charles R Drew University of Medicine and Science,-118.242791,33.925658
Charles Stuart School of Diamond Setting,-73.95856,40.608484
Charleston Cosmetology Institute,-80.111988,32.91777
Charleston School of Beauty Culture,-81.578638,38.317676
Charleston School of Law,-79.937382,32.790942
Charleston Southern University,-80.072587,32.983047
Charlie's Guard-Detective Bureau and Academy Inc,-67.153612,18.469662
Charlotte Christian College and Theological Seminary,-80.737194,35.159664
Charlotte Technical College,-82.147238,27.005558
Charter College,-149.839274,61.19633
Charter Oak State College,-72.781239,41.666848
Charzanne Beauty College,-82.138883,34.212583
Chatham University,-79.926083,40.448432
Chattahoochee Technical College,-84.553722,33.929092
Chattahoochee Valley Community College,-85.031485,32.42391
Chattanooga College Medical Dental and & Technical Careers,-85.238131,35.13314
Chattanooga State Community College,-85.237389,35.100202
Cheeks Beauty Academy,-104.816751,41.134123
Cheeks Beauty Academy,-105.078334,40.445169
Chemeketa Community College,-122.978076,44.978655
Chesapeake College,-76.083668,38.952193
Chester Career College,-77.374112,37.348882
Chester County Intermediate Unit,-75.679627,40.005793
Chestnut Hill College,-75.228742,40.08678
Cheyney University of Pennsylvania,-75.529262,39.932274
CHI Health School of Radiologic Technology,-96.020431,41.32206
Chicago Professional Center,-87.905673,42.10833
Chicago State University,-87.609384,41.718446
Chicago Theological Seminary,-87.591178,41.785701
Chief Dull Knife College,-106.664593,45.625568
Chipola College,-85.23139,30.789228
Chippewa Valley Technical College,-91.505675,44.794867
Chisholm Trail Technology Center,-98.20184,35.84221
Choffin Career  and Technical Center,-80.644393,41.100847
Chowan University,-77.099141,36.436258
Chris Beauty College,-89.077391,30.382294
Christ Mission College,-98.70699,29.543412
Christian Brothers University,-89.983241,35.127437
Christian Culinary Academy,-123.959303,45.89961
Christian Theological Seminary,-86.178551,39.832673
Christina and Company Education Center,-86.815349,40.414052
Christine Valmy International School for Esthetics Skin Care & Makeup,-73.986466,40.757105
Christine Valmy International School of Esthetics & Cosmetology,-74.358331,40.868977
Christopher Newport University,-76.494364,37.062495
Church Divinity School of the Pacific,-122.261122,37.876184
Cincinnati College of Mortuary Science,-84.505604,39.206578
Cincinnati School of Barbering & Hair Design,-84.582563,39.206754
Cincinnati State Technical and Community College,-84.536936,39.149915
Cinta Aveda Institute,-122.404307,37.790935
Circle in the Square Theatre School,-73.984607,40.762059
Cisco College,-98.985206,32.401132
Citadel Military College of South Carolina,-79.958775,32.797183
Citizens School of Nursing,-79.798934,40.573248
Citrus College,-117.886469,34.13537
Citrus Heights Beauty College,-121.289529,38.712951
City College of San Francisco,-122.451155,37.725953
City College-Altamonte Springs,-81.402219,28.663604
City College-Hollywood,-80.22004,26.025173
City Colleges of Chicago-Harold Washington College,-87.626596,41.886067
City Colleges of Chicago-Harry S Truman College,-87.659107,41.964502
City Colleges of Chicago-Kennedy-King College,-87.643425,41.780253
City Colleges of Chicago-Malcolm X College,-87.675321,41.878092
City Colleges of Chicago-Olive-Harvey College,-87.589249,41.709997
City Colleges of Chicago-Richard J Daley College,-87.723981,41.755955
City Colleges of Chicago-Wilbur Wright College,-87.787868,41.958774
City Pointe Beauty Academy,-94.473433,37.140007
City University of Seattle,-122.344594,47.617381
City Vision University,-94.569475,39.101164
Clackamas Community College,-122.574272,45.323185
Claflin University,-80.854319,33.498444
Claremont Graduate University,-117.713703,34.103585
Claremont Lincoln University,-117.716117,34.094273
Claremont McKenna College,-117.711188,34.102154
Claremont School of Theology,-117.715256,34.107602
Clarendon College,-100.902421,34.944558
Clark Atlanta University,-84.412584,33.747628
Clark College,-122.651257,45.636133
Clark State College,-83.799788,39.896411
Clark University,-71.823356,42.249987
Clarke University,-90.690487,42.509475
Clarks Summit University,-75.685472,41.495062
Clarksburg Beauty Academy and School of Massage Therapy,-80.339054,39.279875
Clarkson College,-95.974847,41.259165
Clarkson University,-74.999359,44.662716
Clary Sage College,-95.903835,36.117058
Clatsop Community College,-123.823339,46.183107
Clayton  State University,-84.328174,33.594079
Clear Creek Baptist Bible College,-83.727702,36.725236
Clearfield County Career and Technology Center,-78.418679,41.030572
Cleary University,-83.879987,42.586638
Clemson University,-82.835114,34.679381
Cleveland Clinic Health System-School of Diagnostic Imaging,-81.548554,41.598918
Cleveland Community College,-81.492856,35.279833
Cleveland Institute of Art,-81.602416,41.510435
Cleveland Institute of Music,-81.608878,41.512444
Cleveland State Community College,-84.879284,35.200103
Cleveland State University,-81.674355,41.502281
Cleveland University-Kansas City,-94.679076,38.932019
Clinton College,-81.043469,34.913721
Clinton Community College,-73.439739,44.64841
Clinton Essex Warren Washington BOCES,-73.517906,44.693228
Clinton Technical School,-93.768459,38.363669
Cloud County Community College,-97.664147,39.554199
Clover Park Technical College,-122.497873,47.176084
Clovis Adult Education,-119.690369,36.834459
Clovis Community College,-103.165886,34.402483
Clovis Community College,-119.731261,36.88686
Cloyd's Barber School 2 Inc,-92.090159,32.485377
Cloyd's Beauty School 1 Inc,-92.126506,32.499976
Cloyd's Beauty School 3 Inc,-92.080603,32.533231
Coachella Valley Beauty College,-116.278254,33.708193
Coachella Valley Beauty College-Hemet,-117.010783,33.745675
Coahoma Community College,-90.568469,34.254417
Coalinga College,-120.356747,36.147891
Coastal Alabama Community College,-87.778193,30.851343
Coastal Bend College,-97.755896,28.435194
Coastal Carolina Community College,-77.384785,34.771687
Coastal Carolina University,-79.011767,33.794995
Coastal Pines Technical College,-82.3821,31.212781
Coastline Beauty College,-117.921471,33.728821
Coastline Community College,-117.928979,33.716054
Coba Academy,-117.943108,33.841141
Cochise County Community College District,-110.246946,31.564597
Cochran School of Nursing,-73.885705,40.969116
Coconino Community College,-111.645631,35.171328
Coe College,-91.658192,41.988263
Coffeyville Community College,-95.621374,37.033814
Coker University,-80.070416,34.37696
Colby College,-69.66337,44.564211
Colby Community College,-101.052744,39.377601
Colby-Sawyer College,-71.975805,43.411663
Colegio de Cinematografia Artes y Television,-66.155509,18.399507
Colegio Educativo Tecnologico Industrial Inc,-66.714906,18.471007
Colegio Mayor de Tecnologia Inc,-66.060473,17.970907
Colegio Tecnico de Electricidad Galloza,-67.176343,18.354438
Colegio Universitario de San Juan,-66.066529,18.428528
Colgate Rochester Crozer Divinity School,-77.584292,43.159775
Colgate University,-75.536346,42.819475
Collectiv Academy,-111.851661,40.56441
Collectiv Hair Dressing Academy-Collectiv Academy-Dallas,-96.790828,32.963087
College for Creative Studies,-83.062352,42.361839
College of Alameda,-122.279303,37.781017
College of Athens,-83.421106,33.849669
College of Biblical Studies-Houston,-95.506559,29.716676
College of Biomedical Equipment Technology,-98.587256,29.549552
College of Central Florida,-82.175692,29.166079
College of Charleston,-79.939794,32.784225
College of Coastal Georgia,-81.486169,31.181983
College of Court Reporting Inc,-87.066331,41.467574
College of DuPage,-88.071635,41.841577
College of Eastern Idaho,-111.985519,43.486041
College of Hair Design Careers,-122.981554,44.949897
College of Hair Design-Downtown,-96.705169,40.811084
College of Hair Design-East Campus,-96.596462,40.732974
College of Health Care Professions,-95.420012,29.678462
College of Lake County,-88.012291,42.354164
College of Marin,-122.548758,37.951918
College of Menominee Nation,-88.625628,44.859044
College of Micronesia-FSM,158.158189,6.909759
College of Our Lady of the Elms,-72.60154,42.141781
College of Saint Benedict,-94.319888,45.561792
College of Saint Mary,-96.021425,41.240028
College of San Mateo,-122.334801,37.535698
College of Southern Idaho,-114.473901,42.579837
College of Southern Maryland,-77.009245,38.55895
College of Southern Nevada,-115.233099,36.158114
College of Staten Island CUNY,-74.14849,40.601831
College of the Albemarle,-76.219765,36.324885
College of the Atlantic,-68.221517,44.395258
College of the Canyons,-118.568698,34.403993
College of the Desert,-116.388271,33.732108
College of the Holy Cross,-71.808214,42.23752
College of the Mainland,-94.999602,29.39581
College of the Marshall Islands,171.378129,7.102688
College of the Muscogee Nation,-95.936439,35.635288
College of the Ozarks,-93.238174,36.616019
College of the Redwoods,-124.195293,40.698427
College of the Sequoias,-119.315182,36.323877
College of the Siskiyous,-122.38909,41.413005
College of Western Idaho,-116.507314,43.614106
College of Wilmington,-77.906111,34.21396
College Unbound,-71.412848,41.80644
Collin County Community College District,-96.63894,33.16241
Collins Career Technical Center,-82.473516,38.491898
Colorado Academy of Veterinary Technology,-104.790429,38.794277
Colorado Chinese Medicine University,-104.960118,39.739437
Colorado Christian University,-105.09456,39.71388
Colorado College,-104.822697,38.84886
Colorado Media School,-104.898784,39.637456
Colorado Mesa University,-108.553275,39.080643
Colorado Mountain College,-107.324441,39.54636
Colorado Northwestern Community College,-108.790048,40.081112
Colorado School of Healing Arts,-105.082406,39.697033
Colorado School of Mines,-105.223364,39.751443
Colorado School of Trades,-105.104174,39.74181
Colorado State University Global,-104.786666,39.724786
Colorado State University Pueblo,-104.579033,38.30859
Colorado State University-Fort Collins,-105.080732,40.574805
Colorado Technical University-Colorado Springs,-104.85716,38.895069
Columbia Basin College,-119.12103,46.25216
Columbia Central University-Caguas,-66.022543,18.22329
Columbia College,-81.029967,34.045581
Columbia College,-92.326354,38.957388
Columbia College,-120.388385,38.030367
Columbia College,-77.249152,38.928425
Columbia College Chicago,-87.624667,41.874261
Columbia Gorge Community College,-121.190197,45.590724
Columbia International University,-81.07443,34.07551
Columbia Southern University,-87.653162,30.329288
Columbia State Community College,-87.101917,35.616757
Columbia Theological Seminary,-84.281695,33.764292
Columbia University in the City of New York,-73.961885,40.808286
Columbia-Greene Community College,-73.818113,42.217613
Columbiana County Career and Technical Center,-80.747828,40.768063
Columbus College of Art & Design,-82.989479,39.966074
Columbus State Community College,-82.98766,39.96887
Columbus State University,-84.94106,32.50096
Columbus Technical College,-84.978551,32.508076
Commercial Divers International,-112.408598,33.409576
Commercial Diving Technologies Institute,-82.651569,28.407378
Commonwealth Institute of Funeral Service,-95.430153,29.989545
Commonwealth of Puerto Rico Department of Education-PRAMI,-65.6476,18.300193
Commonwealth Technical Institute,-78.947004,40.301691
Commonwealth University of Pennsylvania,-76.447844,41.00782
Community Care College,-95.905178,36.101615
Community Christian College,-117.217101,34.068664
Community College of Allegheny County,-80.018453,40.450908
Community College of Aurora,-104.802673,39.71788
Community College of Baltimore County,-76.48211,39.352647
Community College of Beaver County,-80.305876,40.655601
Community College of Denver,-105.001044,39.741413
Community College of Philadelphia,-75.165604,39.962458
Community College of Rhode Island,-71.481509,41.712817
Community College of Vermont,-72.573774,44.280811
Compass Career College,-90.479356,30.476327
Compton College,-118.209463,33.878226
Compu-Med Vocational Careers Corp,-80.306915,25.848446
Conception Seminary College,-94.682831,40.24044
Concord University,-81.006696,37.423723
Concorde Career College-Aurora,-104.867089,39.718699
Concorde Career College-Broadway,-94.589739,39.068021
Concorde Career College-Dallas,-96.741711,32.91856
Concorde Career College-Garden Grove,-117.938395,33.774741
Concorde Career College-Grand Prairie,-97.05498,32.675369
Concorde Career College-Kansas City,-94.602584,38.936103
Concorde Career College-Memphis,-89.891723,35.112892
Concorde Career College-North Hollywood,-118.403627,34.186407
Concorde Career College-Portland,-122.650703,45.528354
Concorde Career College-San Antonio,-98.582351,29.49003
Concorde Career College-San Bernardino,-117.283995,34.066823
Concorde Career College-San Diego,-117.102845,32.702814
Concorde Career College-Southaven,-89.988876,34.976181
Concorde Career Institute-Jacksonville,-81.581748,30.23886
Concorde Career Institute-Miramar,-80.291516,25.977088
Concorde Career Institute-Orlando,-81.340421,28.55984
Concorde Career Institute-Tampa,-82.514341,27.959148
Concordia College at Moorhead,-96.76749,46.862482
Concordia Seminary,-90.311324,38.637181
Concordia Theological Seminary,-85.10994,41.139321
Concordia University Ann Arbor,-83.68268,42.273157
Concordia University Texas,-97.835703,30.420232
Concordia University-Chicago,-87.809482,41.898696
Concordia University-Irvine,-117.812305,33.653665
Concordia University-Nebraska,-97.089054,40.914853
Concordia University-Saint Paul,-93.154861,44.949759
Concordia University-Wisconsin,-87.91552,43.253387
Congregation Talmidei Mesivta Tiferes Shmiel Aleksander,-73.994778,40.624233
Connecticut College,-72.107321,41.379833
Connecticut State Community College,-72.672734,41.768397
Connors State College,-95.319541,35.492873
Conservatory of Recording Arts and Sciences,-111.889544,33.407853
Continental School of Beauty Culture-Mattydale,-76.147295,43.105938
Continental School of Beauty Culture-Rochester,-77.626383,43.086397
Continental School of Beauty Culture-West Seneca,-78.754584,42.828416
Contra Costa College,-122.337377,37.969381
Contra Costa Medical Career College,-121.801607,37.976815
Converse University,-81.917881,34.955534
Conway School of Landscape Design,-72.64875,42.313857
Copiah-Lincoln Community College,-90.400234,31.69272
Copper Mountain Community College,-116.213939,34.140464
Coppin State University,-76.658687,39.311258
Corban University,-122.961129,44.882399
Corinth Academy of Cosmetology,-88.520546,34.934036
Cornell College,-91.423741,41.924554
Cornell University,-76.483084,42.4472
Cornerstone University,-85.595328,42.979966
Cornish College of the Arts,-122.336238,47.618174
Cortiva Institute,-75.378356,40.08063
Cortiva Institute,-80.150541,26.275351
Cortiva Institute,-81.397179,28.629921
Cortiva Institute,-76.672532,39.215919
Cortiva Institute,-82.680031,27.793547
Cortiva Institute,-72.678562,41.604041
Cortiva Institute-Arlington,-97.119031,32.6769
Cosmetology & Spa Academy,-88.294087,42.24918
Cosmetology Academy of Texarkana,-94.132583,33.457096
Cosmetology Concepts Niles,-87.815113,42.027601
Cosmetology School of Arts & Sciences,-113.78718,42.561068
Cosmetology Training Center,-92.073116,30.180961
Cossatot Community College of the University of Arkansas,-94.3673,34.043389
Cosumnes River College,-121.423108,38.45295
Cottey College,-94.371311,37.836127
County College of Morris,-74.579873,40.859141
Covenant College,-85.375066,34.965161
Covenant School of Nursing and Allied Health,-101.937872,33.5757
Covenant Theological Seminary,-90.451323,38.643066
Cowley County Community College,-97.043075,37.061668
Cox College,-93.290233,37.225116
Cozmo Beauty School,-81.7803,26.330412
Crafton Hills College,-117.101173,34.039178
Cranbrook Academy of Art,-83.250681,42.568904
Crave Beauty Academy,-97.387374,37.684374
Craven Community College,-77.102232,35.111516
Crawford County Career and Technical Center Practical Nursing Program,-80.126167,41.633675
Creative Hair School of Cosmetology,-83.757927,42.980416
Creative Images Institute of Cosmetology-North Dayton,-84.188407,39.855992
Creative Images Institute of Cosmetology-South Dayton,-84.174179,39.627019
Creative Touch Cosmetology School,-90.146194,38.335231
Creighton University,-95.947811,41.265361
Crescent City Bartending School,-90.086679,29.966842
Crevier's Academy of Cosmetology Arts,-114.319109,48.201201
Criswell College,-96.77669,32.793513
Crowder College,-94.368315,36.814906
Crowley's Ridge College,-90.584395,36.064845
Crown College,-93.743019,44.885393
Crown Cutz Academy Bristol,-82.192413,36.605279
CRU Institute of Cosmetology and Barbering,-118.030758,33.790145
CT Aerotech,-72.652583,41.735051
CTK Healthcare & Career Institute,-96.993287,32.854097
Cuesta College,-120.742235,35.331276
Culinary Institute Inc,-95.378633,29.823623
Culinary Institute of America,-73.933231,41.745806
Culinary Tech Center,-73.770954,41.027933
Culpeper Cosmetology Training Center,-77.994727,38.471182
Culver-Stockton College,-91.529374,40.128993
Cumberland University,-86.298782,36.204514
CUNY Bernard M Baruch College,-73.983417,40.740238
CUNY Borough of Manhattan Community College,-74.011826,40.71879
CUNY Bronx Community College,-73.912043,40.858112
CUNY Brooklyn College,-73.949898,40.631517
CUNY City College,-73.948542,40.819846
CUNY Graduate School and University Center,-73.983822,40.748612
CUNY Hostos Community College,-73.926759,40.81812
CUNY Hunter College,-73.964795,40.768669
CUNY John Jay College of Criminal Justice,-73.98841,40.770351
CUNY Kingsborough Community College,-73.935812,40.577222
CUNY LaGuardia Community College,-73.935057,40.7445
CUNY Lehman College,-73.895379,40.872962
CUNY Medgar Evers College,-73.957076,40.666256
CUNY New York City College of Technology,-73.987856,40.695483
CUNY Queens College,-73.820053,40.736416
CUNY Queensborough Community College,-73.756656,40.755481
CUNY School of Law,-73.943621,40.747797
CUNY Stella and Charles Guttman Community College,-73.984131,40.75281
CUNY York College,-73.796313,40.701576
Curry College,-71.116539,42.238061
Curtis Institute of Music,-75.170727,39.948857
Cutting Edge Academy,-74.644718,40.86887
Cutting Edge Barber Academy,-76.308585,40.039119
Cuyahoga Community College District,-81.683533,41.494906
Cuyahoga Valley Career Center,-81.625375,41.344555
Cuyamaca College,-116.942854,32.744305
CVPH Medical Center School of Radiologic Technology,-73.469597,44.699929
CyberTex Institute of Technology,-97.70303,30.324403
Cypress College,-118.025143,33.82833
D A Dorsey Technical College,-80.225732,25.839575
D'Mart Institute,-66.294065,18.182628
D'Youville  University,-78.890868,42.902636
D&S School of Cosmetology,-83.369697,42.639596
Daemen University,-78.788111,42.965605
Dakota College at Bottineau,-100.441103,48.832505
Dakota County Technical College,-93.07805,44.737255
Dakota State University,-97.113358,44.013014
Dakota Wesleyan University,-98.031188,43.697432
Dallas Baptist University,-96.947006,32.710017
Dallas Barber & Stylist College,-96.737009,32.909891
Dallas Christian College,-96.887117,32.913692
Dallas College,-96.794036,32.766319
Dallas Institute of Funeral Service,-96.683404,32.771368
Dallas Theological Seminary,-96.780497,32.795361
Dalton Institute of Esthetics and Cosmetology,-84.970455,34.762636
Dalton State College,-85.002775,34.774221
Danville Area Community College,-87.587884,40.127539
Danville Community College,-79.408803,36.565286
Daoist Traditions College of Chinese Medical Arts,-82.568537,35.606831
Dartmouth College,-72.289949,43.704115
Davenport University,-85.533519,42.850013
David Pressley School of Cosmetology,-83.146008,42.479729
Davidson College,-80.843979,35.499767
Davidson-Davie Community College,-80.181868,35.865471
Davis & Elkins College,-79.846022,38.931232
Davis College,-83.532589,41.652922
Davis College,-73.812057,43.730713
Davis Technical College,-111.925227,41.028956
Dawn Career Institute LLC,-75.677768,39.668605
Dawson Community College,-104.725485,47.085396
Daybreak University,-117.88954,33.837857
Dayton Barber College,-84.222996,39.628936
Dayton School of Medical Massage,-84.168901,39.682932
Daytona College,-81.080155,29.270088
Daytona State College,-81.049513,29.20278
De Anza College,-122.045783,37.319914
Dean College,-71.397813,42.085634
Debutantes School of Cosmetology and Nail Technology,-88.751471,41.93057
Defiance College,-84.357075,41.296842
DeHart Technical School,-120.997781,37.71339
Del Mar College,-97.40762,27.763619
Del-Mar-Va Beauty Academy,-75.601701,38.339006
Delaware Chenango Madison Otsego BOCES-Practical Nursing Program,-75.520079,42.585293
Delaware College of Art and Design,-75.549882,39.741947
Delaware County Community College,-75.39308,39.966724
Delaware County Technical School-Practical Nursing Program,-75.367229,39.988428
Delaware Learning Institute of Cosmetology,-75.256051,38.541187
Delaware State University,-75.54053,39.187173
Delaware Technical Community College-Terry,-75.56012,39.198371
Delaware Valley University,-75.158452,40.298659
Delgado Community College,-90.103962,29.985149
Delta College,-83.985943,43.559491
Delta College Inc,-90.086695,30.467468
Delta College of Arts & Technology,-91.113841,30.463619
Delta College of Arts & Technology-Lafayette Campus,-92.041847,30.158184
Delta College-Slidell Campus,-89.78043,30.286052
Delta State University,-90.735365,33.744745
Delta Technical College-Mississippi,-89.99937,34.955269
Deluxe Barber College,-98.400819,29.554971
Denham Springs Beauty School,-90.944774,30.484636
Denison University,-82.523272,40.071505
Denmark College,-87.357915,41.469921
Denmark Technical College,-81.123629,33.313355
Dental Assistant Pro LLC-Columbus,-82.932055,40.109752
Dental Assistant Pro-Lebanon,-84.190385,39.445803
Denver College of Nursing,-104.994725,39.75303
Denver College of Nursing-Houston,-95.607143,29.781312
Denver Seminary,-105.022363,39.600595
DePaul University,-87.62724,41.877618
DePauw University,-86.860363,39.640904
Derech Hachaim Seminary,-74.161936,41.337206
Dermal Science International Aesthetics and Nail Academy,-77.337967,38.952045
Des Moines Area Community College,-93.611597,41.707348
Des Moines University-Osteopathic Medical Center,-93.81733,41.54124
DeSales University,-75.375608,40.539091
Design Institute of San Diego,-117.167374,32.880926
Design's School of Cosmetology,-120.672526,35.648459
Designer Barber & Stylist School,-94.370331,35.359477
Detroit Business Institute-Downriver,-83.191212,42.168682
DeVry College of New York,-73.983492,40.747747
DeVry University-Arizona,-112.104601,33.565758
DeVry University-California,-117.5876,34.068481
DeVry University-Florida,-81.456099,28.456226
DeVry University-Georgia,-84.297316,33.775112
DeVry University-Illinois,-88.116625,41.807204
DeVry University-Nevada,-115.096601,36.020266
DeVry University-New Jersey,-74.311372,40.557503
DeVry University-Ohio,-82.906219,40.046679
DeVry University-Texas,-97.012494,32.934524
DeVry University-Virginia,-77.049759,38.861096
Dewey University-Carolina,-65.958397,18.376596
Dewey University-Hato Rey,-66.043033,18.417614
Dewey University-Juana Diaz,-66.509285,18.057023
Dewey University-Manati,-66.487333,18.433307
Dharma Realm Buddhist University,-123.158174,39.134532
Diablo Valley College,-122.073142,37.968516
Diamond Beauty College,-118.0467,34.063052
Diamonds College,-96.606125,33.673442
Dickinson College,-77.197854,40.202796
Dickinson State University,-102.799679,46.882917
Diesel Driving Academy-Baton Rouge,-91.103287,30.465289
Diesel Driving Academy-Shreveport,-93.794921,32.47617
DigiPen Institute of Technology,-122.150603,47.68871
Digital Film Academy,-73.991082,40.760073
Digital Media Institute,-93.771686,32.480613
DiGrigoli School of Cosmetology,-72.630272,42.146311
Dillard University,-90.06464,29.996587
Diman Regional Technical Institute,-71.155011,41.718422
Dine College,-109.21684,36.293328
Divers Institute of Technology,-122.340894,47.647402
Diversified Vocational College,-118.272364,34.056102
Divine Mercy University,-77.437576,38.979728
Divine Word College,-90.934578,42.441721
Dixie Technical College,-113.591475,37.098418
DLP Conemaugh Memorial Medical Center,-78.918445,40.305445
Doane University,-96.950932,40.622952
Dodge City Community College,-100.037481,37.776891
Dolce The Academy,-72.991263,41.540983
Dominican School of Philosophy & Theology,-122.264612,37.881099
Dominican University,-87.823003,41.902678
Dominican University New York,-73.950555,41.047419
Dominican University of California,-122.512051,37.981279
Don Roberts School of Hair Design,-87.447089,41.485532
Dongguk University Los Angeles,-118.289523,34.06597
Donnelly College,-94.649827,39.112346
Dordt University,-96.166562,43.082527
Dorsey College,-83.107631,42.525318
Dorsey College-Dearborn,-83.219356,42.330658
Dorsey College-Grand Rapids,-85.542671,42.916234
Dorsey College-Roseville,-82.915541,42.527764
Dorsey College-Saginaw,-83.973056,43.47055
Dorsey College-Wayne,-83.382299,42.28171
Dorsey College-Woodhaven,-83.223919,42.142483
Dorsey School of Beauty,-83.259322,42.254745
Douglas Education Center,-79.888461,40.161519
Douglas J Aveda Institute,-84.480467,42.734606
Downey Adult School,-118.115727,33.91965
Dr. Ida Rolf Institute,-105.203076,40.066263
Dragon Rises College of Oriental Medicine,-82.312769,29.667368
Drake University,-93.652163,41.60129
Drew University,-74.424584,40.761829
Drexel University,-75.190051,39.955217
Drury University,-93.286192,37.219681
Drury University-College of Continuing Professional Studies,-93.286192,37.219681
DSDT,-83.081501,42.325621
Duke University,-78.937624,36.001135
Dunwoody College of Technology,-93.290608,44.97281
Duquesne University,-79.993123,40.43589
Durant Institute of Hair Design,-96.405502,34.005777
Durham Technical Community College,-78.8817,35.974768
Dutchess BOCES-Practical Nursing Program,-73.866875,41.743538
Dutchess Community College,-73.904652,41.724245
DuVall's School of Cosmetology,-97.168105,32.852275
Dyersburg State Community College,-89.390791,36.047565
Dymond Designs Beauty School,-83.013866,42.341646
Ea La Mar's Cosmetology & Barber College,-94.551962,39.094285
Eagle Gate College-Boise Campus,-116.298572,43.59091
Eagle Gate College-Layton,-111.973885,41.073374
Eagle Gate College-Murray,-111.903609,40.649984
Earlham College,-84.915037,39.823431
East Arkansas Community College,-90.767726,35.041655
East Carolina University,-77.368291,35.607186
East Central College,-90.97809,38.431845
East Central Community College,-89.113706,32.441164
East Central University,-96.663849,34.771934
East Georgia State College,-82.309021,32.594944
East Los Angeles College,-118.148785,34.040531
East Mississippi Community College,-88.483516,32.830246
East Ohio College,-80.572063,40.6796
East Stroudsburg University of Pennsylvania,-75.173905,40.99599
East Tennessee State University,-82.366954,36.301643
East Texas Baptist University,-94.374488,32.557847
East Texas Cosmetology College,-94.733362,31.283266
East Valley Institute of Technology,-111.863966,33.412268
East West College of Natural Medicine,-82.551571,27.368451
East West College of the Healing Arts,-122.681029,45.513392
East-West Healing Arts Institute,-89.491041,43.056
East-West University,-87.624793,41.871309
Eastern Arizona College,-109.76234,32.843664
Eastern Center for Arts and Technology,-75.108649,40.158437
Eastern Connecticut State University,-72.218753,41.721673
Eastern Florida State College,-80.670781,28.170002
Eastern Gateway Community College,-80.668798,40.376215
Eastern Illinois University,-88.175658,39.479843
Eastern International College-Jersey City,-74.060452,40.735178
Eastern Iowa Community College District,-90.574459,41.522179
Eastern Kentucky University,-84.300796,37.740845
Eastern Maine Community College,-68.74445,44.826048
Eastern Mennonite University,-78.880326,38.471134
Eastern Michigan University,-83.627443,42.251675
Eastern Nazarene College,-71.011079,42.271228
Eastern New Mexico University Ruidoso Branch Community College,-105.677273,33.346376
Eastern New Mexico University-Main Campus,-103.34819,34.175592
Eastern New Mexico University-Roswell Campus,-104.525718,33.313167
Eastern Oklahoma County Technology Center,-97.266991,35.516891
Eastern Oklahoma State College,-95.328995,34.914079
Eastern Oregon University,-118.092495,45.319795
Eastern School of Acupuncture and Traditional Medicine,-74.19716,40.79361
Eastern Shore Community College,-75.751129,37.639652
Eastern Suffolk BOCES,-73.086618,40.738793
Eastern Suffolk BOCES,-73.109752,40.745531
Eastern Suffolk BOCES,-72.671895,40.927928
Eastern University,-75.370316,40.050448
Eastern Virginia Career College,-77.495581,38.24116
Eastern Virginia Medical School,-76.302131,36.860042
Eastern Washington University,-117.583808,47.490667
Eastern West Virginia Community and Technical College,-78.932546,39.075562
Eastern Wyoming College,-104.190823,42.079354
Eastland-Fairfield Career and Technical Schools,-82.884305,39.88667
Eastwick College-Hackensack,-74.040491,40.885847
Eastwick College-Nutley,-74.144192,40.810742
Eastwick College-Ramsey,-74.131486,41.057866
Ecclesia College,-94.236643,36.2141
Eckerd College,-82.687043,27.715798
ECPI University,-76.178773,36.842526
Ecumenical Theological Seminary,-83.055266,42.344129
Eden Theological Seminary,-90.345605,38.592307
Edge Academy of Beauty,-83.771185,37.139393
Edgecombe Community College,-77.571786,35.879867
Edgewood College,-89.422884,43.057059
Edison State Community College,-84.212385,40.157699
Edmonds College,-122.327598,47.816376
EDP School,-73.952901,40.58605
EDP University of Puerto Rico Inc-San Juan,-66.055403,18.415375
EDP University of Puerto Rico Inc-San Sebastian,-66.992287,18.338036
EDP University of Puerto Rico-Caguas,-66.025309,18.242649
EDP University of Puerto Rico-Humacao,-65.82455,18.150762
EDP University of Puerto Rico-Manati,-66.490949,18.429431
EDP University of Puerto Rico-Villalba,-66.505648,18.109811
Educators of Beauty College of Cosmetology-Peru,-89.118454,41.354338
Educators of Beauty College of Cosmetology-Rockford,-88.98081,42.268515
Educators of Beauty College of Cosmetology-Sterling,-89.692522,41.788581
Edward Via College of Osteopathic Medicine,-80.406089,37.199747
Edward Waters University,-81.684879,30.34479
EHOVE Career Center,-82.630439,41.332655
EINE Inc,-71.220396,42.598024
El Camino Community College District,-118.329913,33.885229
El Paso Community College,-106.373616,31.773359
Elaine Sterling Institute,-84.363266,33.846647
Electrical and HVAC/R Training Center,-73.404943,40.680471
Elevate Salon Institute,-78.898377,35.993485
Elevate Salon Institute,-83.164514,42.525165
Elevate Salon Institute-Westminster,-105.072521,39.857821
Elgin Community College,-88.32194,42.018066
Elim Bible Institute and College,-77.615151,42.909692
Elite Academy of Hair Design,-80.769323,40.066604
Elite Beauty College,-95.403011,35.75706
Elite College of Cosmetology,-88.409149,35.657876
Elite Cosmetology Barber & Spa Academy,-120.54382,46.584032
Elite Cosmetology School,-116.394724,33.723624
Elite School of Cosmetology,-82.60795,41.233614
Elite Welding Academy,-95.298611,29.700719
Elite Welding Academy LLC,-84.468434,39.313738
Elite Welding Academy South Point,-82.594354,38.447233
Elizabeth City State University,-76.214041,36.277978
Elizabethtown College,-76.593224,40.149236
Elizabethtown Community and Technical College,-85.879927,37.692858
Ellsworth Community College,-93.265853,42.527524
Elmezzi Graduate School of Molecular Medicine,-73.702257,40.775582
Elmhurst University,-87.945369,41.897164
Elmira College,-76.813459,42.0961
Elon University,-79.50344,36.104148
Elyon College,-73.980593,40.611081
Embry-Riddle Aeronautical University-Daytona Beach,-81.048367,29.189903
Embry-Riddle Aeronautical University-Prescott,-112.449741,34.616766
Embry-Riddle Aeronautical University-Worldwide,-81.048367,29.189903
Emerald Coast Technical College,-86.128061,30.73209
Emerson College,-71.065384,42.352202
Emily Griffith Technical College,-104.985751,39.74575
Emma's Beauty Academy-Juana Diaz,-66.504191,18.041587
Emma's Beauty Academy-Mayaguez,-67.140563,18.201283
Emmanuel College,-71.103634,42.340602
Emmanuel University,-83.14822,34.283641
Emmaus Bible College,-90.706011,42.508307
Emory & Henry University,-81.829142,36.772857
Emory University,-84.325512,33.790183
Emory University-Oxford College,-83.871141,33.6191
Emperor's College of Traditional Oriental Medicine,-118.485119,34.030438
Empire Beauty  School-Lehigh Valley,-75.485471,40.63006
Empire Beauty School-Augusta,-82.066289,33.516811
Empire Beauty School-Aurora,-104.792572,39.695935
Empire Beauty School-Avondale,-112.274477,33.463388
Empire Beauty School-Bloomfield,-74.199706,40.79497
Empire Beauty School-Bloomington,-93.287367,44.82746
Empire Beauty School-Brooklyn,-73.989884,40.599279
Empire Beauty School-Buffalo,-78.755118,42.908206
Empire Beauty School-Center City Philadelphia,-75.166566,39.950921
Empire Beauty School-Chandler,-111.860423,33.347586
Empire Beauty School-Charlotte,-80.7837,35.25855
Empire Beauty School-Cheltenham,-75.16864,40.082265
Empire Beauty School-Chenoweth,-85.65752,38.255764
Empire Beauty School-Cherry Hill,-75.017823,39.941469
Empire Beauty School-Cincinnati,-84.588841,39.22325
Empire Beauty School-Concord,-80.712059,35.364022
Empire Beauty School-Dixie,-85.830866,38.167059
Empire Beauty School-E Memphis,-89.90197,35.115499
Empire Beauty School-Elizabethtown,-85.878557,37.697453
Empire Beauty School-Florence,-84.628998,39.009553
Empire Beauty School-Glen Burnie,-76.616551,39.203264
Empire Beauty School-Green Bay,-88.076427,44.477375
Empire Beauty School-Gwinnett,-84.121878,33.939252
Empire Beauty School-Hanover,-76.995146,39.818109
Empire Beauty School-Harrisburg,-76.828798,40.293647
Empire Beauty School-Hooksett,-71.44412,43.054992
Empire Beauty School-Jackson,-88.847611,35.63694
Empire Beauty School-Kennesaw,-84.56688,34.012704
Empire Beauty School-Laconia,-71.469612,43.527157
Empire Beauty School-Lakeland,-81.973025,28.108318
Empire Beauty School-Lancaster,-76.354033,40.038813
Empire Beauty School-Lebanon,-76.423302,40.311029
Empire Beauty School-Littleton,-105.097089,39.608128
Empire Beauty School-Maine,-70.258154,43.667885
Empire Beauty School-Malden,-71.076619,42.427368
Empire Beauty School-Manhattan,-73.986453,40.748938
Empire Beauty School-Michigan,-85.691067,43.028642
Empire Beauty School-Midlothian,-77.593651,37.43843
Empire Beauty School-Milwaukee,-87.950452,42.94256
Empire Beauty School-Monroeville,-79.785227,40.434651
Empire Beauty School-Morrow,-84.32568,33.564936
Empire Beauty School-Nashville,-86.814676,35.967868
Empire Beauty School-NE Philadelphia,-74.971093,40.084983
Empire Beauty School-Newport News,-76.504353,37.114415
Empire Beauty School-North Hills,-80.004389,40.51987
Empire Beauty School-Northlake,-84.256996,33.847741
Empire Beauty School-Owings Mills,-76.761993,39.403672
Empire Beauty School-Peekskill,-73.918806,41.291484
Empire Beauty School-Pineville,-80.865367,35.089864
Empire Beauty School-Pottsville,-76.186417,40.706451
Empire Beauty School-Queens,-73.919033,40.759259
Empire Beauty School-Reading,-75.927465,40.370166
Empire Beauty School-Richmond,-77.550607,37.634052
Empire Beauty School-Rochester,-77.726297,43.216013
Empire Beauty School-Savannah,-81.110045,32.008498
Empire Beauty School-Shamokin Dam,-76.815891,40.854559
Empire Beauty School-Somersworth,-70.881563,43.23004
Empire Beauty School-Speedway,-86.261512,39.80055
Empire Beauty School-Spring Lake Park,-93.26237,45.117185
Empire Beauty School-Springfield,-75.349771,39.93765
Empire Beauty School-Stone Park,-87.871263,41.907282
Empire Beauty School-Tampa,-82.338274,27.941959
Empire Beauty School-Thornton,-104.94357,39.915253
Empire Beauty School-Tucson,-110.927187,32.235657
Empire Beauty School-Union,-74.238364,40.684576
Empire Beauty School-Vernon Hills,-87.958698,42.241767
Empire Beauty School-Virginia Beach,-76.135548,36.838455
Empire Beauty School-Warwick,-71.422425,41.821724
Empire Beauty School-West Greensboro,-79.90432,36.051588
Empire Beauty School-West Mifflin,-79.946147,40.344669
Empire Beauty School-West Palm,-80.107401,26.705541
Empire Beauty School-Winston-Salem,-80.282751,36.152612
Empire Beauty School-Wyoming Valley,-75.701735,41.375743
Empire Beauty School-York,-76.674663,39.972543
Empire College,-122.729337,38.468052
Empire State University,-73.782484,43.077283
Employment Solutions-College for Technical Education,-84.483346,37.982131
Emporia State University,-96.179021,38.414784
Endicott College,-70.840847,42.553296
Ensign College,-111.9002,40.77113
Enterprise State Community College,-85.836956,31.297496
Entourage Institute of Beauty and Esthetics,-96.641266,40.756017
Epic Bible College & Graduate School,-121.362642,38.645152
Episcopal Theological Seminary of the Southwest,-97.732652,30.293092
Eric Fisher Academy,-97.422011,37.693713
Erie 1 BOCES,-78.78642,42.851567
Erie 2 Chautauqua Cattaraugus BOCES-Practical Nursing Program,-79.387599,42.110198
Erie Community College,-78.872679,42.881771
Erie Institute of Technology Inc,-80.100853,42.071725
Erikson Institute,-87.632178,41.890663
Erskine College,-82.39095,34.332087
Erwin Technical College,-82.435933,27.997242
Escondido Adult School,-117.088454,33.131225
Escuela de Artes Plasticas y Diseno de Puerto Rico,-66.121348,18.46778
Escuela de Peritos Electricistas de Isabela Inc,-67.030787,18.485146
Escuela De Troqueleria Y Herramentaje,-66.143939,18.374732
Escuela Hotelera de San Juan,-66.046598,18.417008
Escuela Tecnica de Electricidad,-66.619944,18.010451
Essex County College,-74.178234,40.738444
Esteem Academy of Beauty,-111.93946,41.161895
Estelle Medical Academy,-87.74816,42.059097
Estelle Skin Care and Spa Institute,-87.747041,42.06358
Estes Institute of Cosmetology Arts and Science,-119.289234,36.330422
Estrella Mountain Community College,-112.343158,33.480722
ETI School of Skilled Trades,-87.936249,41.748334
ETI Technical College,-80.723213,41.18694
Euphoria Institute of Beauty Arts & Sciences-Summerlin,-115.298988,36.147552
Eureka College,-89.269624,40.71482
European Massage Therapy School-Las Vegas,-115.300577,36.145445
European Medical School of Massage,-76.008531,40.319684
Evangel University,-93.262614,37.220956
Evangel University-College of Online Learning,-93.262614,37.220956
Evangel University-James River Assembly of God Church,-93.227055,37.075963
Evans Hairstyling College-Cedar City,-113.064394,37.679851
Evans Hairstyling College-Rexburg,-111.812372,43.824716
Evans Hairstyling College-St George,-113.561412,37.107716
Everett Community College,-122.204736,48.006626
Everglades University,-80.108331,26.391218
Evergreen Beauty and Barber College-Everett,-122.221962,47.909189
Evergreen Valley College,-121.76561,37.30167
Eves College of Hairstyling,-98.402794,34.604991
Evolve Beauty Academy,-91.013977,38.551723
Evvaylois Academy School of Beauty,-96.388462,30.148715
Excelsior University,-73.862981,42.705487
Exposito School of Hair Design,-101.881271,35.183578
Fairfax University of America,-77.347751,38.84905
Fairfield University,-73.255903,41.157673
Fairleigh Dickinson University-Florham Campus,-74.432121,40.774498
Fairleigh Dickinson University-Metropolitan Campus,-74.028986,40.897209
Fairmont State University,-80.162433,39.483079
Faith Baptist Bible College and Theological Seminary,-93.624422,41.737082
Faith International University,-122.51687,47.280168
Faith Theological Seminary and Christian College,-82.582376,28.018844
Falcon Institute of Health and Science,-75.42429,40.651462
Family of Faith Christian University,-96.901413,35.462234
Farmingdale State College,-73.42832,40.754224
Fashion Institute of Technology,-73.994781,40.74731
Faulkner University,-86.21641,32.384181
Faust Institute of Cosmetology-Spirit Lake,-95.113596,43.42141
Fayette County Career & Technical Institute Practical Nursing Program,-79.741718,39.860976
Fayette Institute of Technology,-81.146785,37.988801
Fayetteville State University,-78.891696,35.073641
Fayetteville Technical Community College,-78.92658,35.068851
Feather River Community College District,-120.973067,39.953101
Federico Beauty Institute,-121.497761,38.64883
Felbry College,-82.951066,40.09578
Felician University,-74.096452,40.867272
Ferris State University,-85.481925,43.687724
Ferrum College,-80.020614,36.926431
FIDM-Fashion Institute of Design & Merchandising,-118.25993,34.044209
Fielding Graduate University,-119.717161,34.42941
FINE Mortuary College,-71.19293,42.181479
Finger Lakes Community College,-77.241801,42.867556
Finger Lakes Health College of Nursing & Health Sciences,-76.987844,42.876429
Firelands Regional Medical Center School of Nursing,-82.71189,41.43719
First Class Cosmetology School,-89.036231,42.49901
First Coast Barber Academy,-81.660201,30.33211
First Coast Technical College,-81.345829,29.924377
First Institute of Travel Inc.,-88.339468,42.21926
Fisher College,-71.074125,42.355253
Fisk University,-86.804805,36.167087
Fitchburg State University,-71.789666,42.588298
Five Branches University,-121.998245,36.964348
Five Towns College,-73.369348,40.794506
Flagler College,-81.314887,29.892733
Flagler Technical College,-81.211337,29.47629
Flathead Valley Community College,-114.327258,48.227389
Fletcher Technical Community College,-90.811707,29.690884
Flint Hills Technical College,-96.224141,38.41888
Florence-Darlington Technical College,-79.81469,34.243882
Florida Academy,-81.825149,26.608576
Florida Academy of Health & Beauty,-80.181569,26.16627
Florida Academy of Nursing,-80.306128,25.978064
Florida Agricultural and Mechanical University,-84.290226,30.428504
Florida Atlantic University,-80.102978,26.372421
Florida Barber Academy,-80.203691,26.122056
Florida Career College-Boynton Beach,-80.092161,26.54289
Florida Career College-Hialeah,-80.319292,25.855552
Florida Career College-Houston,-95.431325,30.022309
Florida Career College-Jacksonville,-81.751361,30.19576
Florida Career College-Lauderdale Lakes,-80.205267,26.16574
Florida Career College-Margate,-80.203455,26.270878
Florida Career College-Miami,-80.36778,25.756567
Florida Career College-Orlando,-81.309471,28.56052
Florida Career College-Pembroke Pines,-80.246116,26.010968
Florida Career College-Tampa,-82.337004,27.980705
Florida Career College-West Palm Beach,-80.136749,26.705217
Florida College,-82.383289,28.034936
Florida College of Integrative Medicine,-81.401757,28.46359
Florida Education Institute,-80.290496,25.76325
Florida Gateway College,-82.5679,30.175298
Florida Gulf Coast University,-81.7726,26.463638
Florida Institute of Recording Sound and Technology,-81.401029,28.625257
Florida Institute of Technology,-80.623123,28.065773
Florida Institute of Technology-Online,-80.623123,28.065773
Florida International Training Institute,-80.314681,25.797851
Florida International University,-80.373928,25.75732
Florida Memorial University,-80.270753,25.918278
Florida National University-Main Campus,-80.321846,25.86178
Florida Panhandle Technical College,-85.553345,30.77449
Florida Polytechnic University,-81.845995,28.150149
Florida Professional Institute,-80.324728,25.733948
Florida School of Massage,-82.338273,29.593428
Florida School of Traditional Midwifery,-82.31585,29.652269
Florida Southern College,-81.948203,28.032443
Florida SouthWestern State College,-81.887102,26.552403
Florida State College at Jacksonville,-81.659901,30.334918
Florida State University,-84.295064,30.443147
Focus Personal Training Institute,-73.991731,40.745926
Folsom Lake College,-121.127486,38.661372
Fond du Lac Tribal and Community College,-92.451326,46.690069
Fontbonne University,-90.315712,38.642697
Foothill College,-122.127964,37.361655
Fordham University,-73.882705,40.859354
Formations Institute,-97.927122,36.393267
Formations Institute of Cosmetology & Barbering,-99.386309,36.43491
Forsyth Technical Community College,-80.272215,36.06854
Fort Hays State University,-99.342503,38.872156
Fort Lewis College,-107.867422,37.275939
Fort Myers Technical College,-81.836596,26.647517
Fort Peck Community College,-105.193021,48.113569
Fort Pierce Beauty Academy,-80.325377,27.411962
Fort Scott Community College,-94.715334,37.816206
Fort Valley State University,-83.89537,32.537595
Fort Worth Beauty School,-97.420695,32.82338
Fortis College,-95.64832,29.732861
Fortis College,-88.205581,30.68413
Fortis College-Baton Rouge,-91.024833,30.366448
Fortis College-Centerville,-84.146046,39.644364
Fortis College-Cincinnati,-84.444969,39.283312
Fortis College-Columbia,-81.081809,34.01512
Fortis College-Columbus,-82.900188,40.083063
Fortis College-Cutler Bay,-80.363995,25.585653
Fortis College-Cuyahoga Falls,-81.470433,41.143856
Fortis College-Dothan,-85.37446,31.243014
Fortis College-Indianapolis,-86.223181,39.9184
Fortis College-Landover,-76.866209,38.949983
Fortis College-Montgomery,-86.252163,32.384006
Fortis College-Norfolk,-76.190241,36.846983
Fortis College-Orange Park,-81.759035,30.148278
Fortis College-Richmond,-77.488437,37.58153
Fortis College-Salt Lake City,-111.870502,40.685819
Fortis College-Smyrna,-84.543009,33.900255
Fortis Institute,-95.395051,29.93744
Fortis Institute-Birmingham,-86.862659,33.442921
Fortis Institute-Cookeville,-85.478765,36.143291
Fortis Institute-Forty Fort,-75.882975,41.281911
Fortis Institute-Lawrenceville,-74.719102,40.260811
Fortis Institute-Nashville,-86.696299,36.084542
Fortis Institute-Pensacola,-87.183112,30.510415
Fortis Institute-Port Saint Lucie,-80.303751,27.3016
Fortis Institute-Scranton,-75.651683,41.417104
Fortis Institute-Towson,-76.604593,39.403271
Fortis Institute-Wayne,-74.255794,40.885499
Fosbre Academy of Hair Design,-122.935367,47.039503
Fosters Cosmetology College,-88.942133,34.755677
Fountain of Youth Academy of Cosmetology,-79.921895,40.437815
Four County Career Center,-84.303115,41.452808
Four Rivers Career Center,-91.020914,38.547707
Fox College,-87.785169,41.563842
Fox Valley Technical College,-88.45893,44.283174
Framingham State University,-71.437565,42.297116
Francis Marion University,-79.652854,34.189777
Francis Tuttle Technology Center,-97.640672,35.60052
Franciscan Missionaries of Our Lady University,-91.110587,30.401379
Franciscan School of Theology,-117.192073,32.770816
Franciscan University of Steubenville,-80.620524,40.376919
Frank Phillips College,-101.406005,35.657778
Franklin and Marshall College,-76.319037,40.048045
Franklin College,-86.047182,39.478298
Franklin County Career and Technology Center,-77.680541,39.897693
Franklin Hair Academy School of Cosmetology,-86.880233,35.932691
Franklin Pierce University,-72.058011,42.78014
Franklin Technology Center Adult Education,-94.516401,37.082409
Franklin University,-82.990375,39.95831
Franklin W Olin College of Engineering,-71.263378,42.293527
Fred K Marchman Technical College,-82.691779,28.271196
Fred W Eberle Technical Center,-80.225278,39.001908
Frederick Community College,-77.417849,39.452241
Fredrick and Charles Beauty College,-124.164986,40.798885
Freed-Hardeman University,-88.637964,35.440611
Fremont University,-118.097019,33.868382
French Academy of Cosmetology,-86.198004,43.075898
Fresno City College,-119.796096,36.768164
Fresno Pacific University,-119.735199,36.726831
Friends University,-97.367048,37.678459
Front Range Community College,-105.038068,39.901452
Frontier Community College,-88.392194,38.380271
Frontier Nursing University,-84.692791,38.051018
Frostburg State University,-78.934293,39.650918
Full Sail University,-81.301286,28.596546
Fuller Theological Seminary,-118.140261,34.14778
Fullerton College,-117.918255,33.875514
Fulton-Montgomery Community College,-74.297492,42.983805
Furman University,-82.440458,34.924676
Futura Career Institute,-80.306991,25.863128
Future Generations University,-79.405423,38.70907
FVI School of Nursing and Technology,-80.321789,25.773542
G Skin & Beauty Institute,-87.949684,41.851403
